{
"type": "FeatureCollection",
"name": "poi",
"crs": { "type": "name", "properties": { "name": "urn:ogc:def:crs:OGC:1.3:CRS84" } },
"features": [
{ "type": "Feature", "properties": { "uuid": 9, "id": 25972924, "name": "Pathé", "amenity": "cinema", "bounds": "4.83488, 45.7586907, 4.83488, 45.7586907" }, "geometry": { "type": "Point", "coordinates": [ 4.83488, 45.758691 ] } },
{ "type": "Feature", "properties": { "uuid": 10, "id": 26641424, "name": "Comptoir des Marronniers", "amenity": "restaurant", "bounds": "4.8346121, 45.7569848, 4.8346121, 45.7569848" }, "geometry": { "type": "Point", "coordinates": [ 4.834612, 45.756985 ] } },
{ "type": "Feature", "properties": { "uuid": 11, "id": 26647024, "name": "Lumière Bellecour", "amenity": "cinema", "bounds": "4.8356065, 45.757431, 4.8356065, 45.757431" }, "geometry": { "type": "Point", "coordinates": [ 4.835606, 45.757431 ] } },
{ "type": "Feature", "properties": { "uuid": 15, "id": 26723994, "name": "Lyon Bellecour", "amenity": "post_office", "bounds": "4.8339202, 45.7559244, 4.8339202, 45.7559244" }, "geometry": { "type": "Point", "coordinates": [ 4.83392, 45.755924 ] } },
{ "type": "Feature", "properties": { "uuid": 20, "id": 34819690, "name": "BP", "amenity": "fuel", "bounds": "4.8181145, 45.7346202, 4.8181145, 45.7346202" }, "geometry": { "type": "Point", "coordinates": [ 4.818115, 45.73462 ] } },
{ "type": "Feature", "properties": { "uuid": 27, "id": 35694312, "name": "McDonald's", "amenity": "fast_food", "bounds": "4.8342288, 45.7581985, 4.8342288, 45.7581985" }, "geometry": { "type": "Point", "coordinates": [ 4.834229, 45.758198 ] } },
{ "type": "Feature", "properties": { "uuid": 49, "id": 75693065, "name": "Flam's", "amenity": "restaurant", "bounds": "4.8335475, 45.7628507, 4.8335475, 45.7628507" }, "geometry": { "type": "Point", "coordinates": [ 4.833547, 45.762851 ] } },
{ "type": "Feature", "properties": { "uuid": 51, "id": 75744653, "name": "Le République", "amenity": "pub", "bounds": "4.8358619, 45.7593521, 4.8358619, 45.7593521" }, "geometry": { "type": "Point", "coordinates": [ 4.835862, 45.759352 ] } },
{ "type": "Feature", "properties": { "uuid": 52, "id": 78172367, "name": "Pharmacie Bellecour", "amenity": "pharmacy", "bounds": "4.8305957, 45.7587868, 4.8305957, 45.7587868" }, "geometry": { "type": "Point", "coordinates": [ 4.830596, 45.758787 ] } },
{ "type": "Feature", "properties": { "uuid": 58, "id": 80236926, "name": "Monoprix", "amenity": null, "bounds": "4.8360079, 45.7633263, 4.8360079, 45.7633263" }, "geometry": { "type": "Point", "coordinates": [ 4.836008, 45.763326 ] } },
{ "type": "Feature", "properties": { "uuid": 71, "id": 83454888, "name": "Pizza Pino", "amenity": "restaurant", "bounds": "4.833707, 45.7581665, 4.833707, 45.7581665" }, "geometry": { "type": "Point", "coordinates": [ 4.833707, 45.758167 ] } },
{ "type": "Feature", "properties": { "uuid": 72, "id": 84904640, "name": null, "amenity": "post_box", "bounds": "4.8336653, 45.7628787, 4.8336653, 45.7628787" }, "geometry": { "type": "Point", "coordinates": [ 4.833665, 45.762879 ] } },
{ "type": "Feature", "properties": { "uuid": 73, "id": 84904644, "name": "Central Parc", "amenity": "parking", "bounds": "4.8337709, 45.7628306, 4.8337709, 45.7628306" }, "geometry": { "type": "Point", "coordinates": [ 4.833771, 45.762831 ] } },
{ "type": "Feature", "properties": { "uuid": 86, "id": 95836779, "name": "chamas tacos", "amenity": "fast_food", "bounds": "4.833643, 45.7534034, 4.833643, 45.7534034" }, "geometry": { "type": "Point", "coordinates": [ 4.833643, 45.753403 ] } },
{ "type": "Feature", "properties": { "uuid": 94, "id": 96507385, "name": "Aux Vieux Remparts", "amenity": "pub", "bounds": "4.8256616, 45.754143, 4.8256616, 45.754143" }, "geometry": { "type": "Point", "coordinates": [ 4.825662, 45.754143 ] } },
{ "type": "Feature", "properties": { "uuid": 120, "id": 243510439, "name": "Maker of Stories", "amenity": "pub", "bounds": "4.8348112, 45.7576343, 4.8348112, 45.7576343" }, "geometry": { "type": "Point", "coordinates": [ 4.834811, 45.757634 ] } },
{ "type": "Feature", "properties": { "uuid": 121, "id": 243510442, "name": "Le Monopol", "amenity": "pub", "bounds": "4.8353255, 45.7577889, 4.8353255, 45.7577889" }, "geometry": { "type": "Point", "coordinates": [ 4.835325, 45.757789 ] } },
{ "type": "Feature", "properties": { "uuid": 122, "id": 243510445, "name": "Pharmacie Bel", "amenity": "pharmacy", "bounds": "4.8359344, 45.7573357, 4.8359344, 45.7573357" }, "geometry": { "type": "Point", "coordinates": [ 4.835934, 45.757336 ] } },
{ "type": "Feature", "properties": { "uuid": 131, "id": 243748981, "name": "HSBC", "amenity": "bank", "bounds": "4.8339148, 45.7570804, 4.8339148, 45.7570804" }, "geometry": { "type": "Point", "coordinates": [ 4.833915, 45.75708 ] } },
{ "type": "Feature", "properties": { "uuid": 132, "id": 243748983, "name": "Crédit Mutuel", "amenity": "bank", "bounds": "4.8343535, 45.7577205, 4.8343535, 45.7577205" }, "geometry": { "type": "Point", "coordinates": [ 4.834353, 45.75772 ] } },
{ "type": "Feature", "properties": { "uuid": 133, "id": 243748984, "name": "Crédit Agricole", "amenity": "bank", "bounds": "4.8342077, 45.7575635, 4.8342077, 45.7575635" }, "geometry": { "type": "Point", "coordinates": [ 4.834208, 45.757564 ] } },
{ "type": "Feature", "properties": { "uuid": 134, "id": 243749153, "name": "CIC", "amenity": "atm", "bounds": "4.8349984, 45.7589031, 4.8349984, 45.7589031" }, "geometry": { "type": "Point", "coordinates": [ 4.834998, 45.758903 ] } },
{ "type": "Feature", "properties": { "uuid": 135, "id": 243854071, "name": "Café Bellecour", "amenity": "cafe", "bounds": "4.8300858, 45.7579165, 4.8300858, 45.7579165" }, "geometry": { "type": "Point", "coordinates": [ 4.830086, 45.757917 ] } },
{ "type": "Feature", "properties": { "uuid": 136, "id": 243854441, "name": "Bar à huitre Thomas", "amenity": "restaurant", "bounds": "4.8320183, 45.7532609, 4.8320183, 45.7532609" }, "geometry": { "type": "Point", "coordinates": [ 4.832018, 45.753261 ] } },
{ "type": "Feature", "properties": { "uuid": 174, "id": 247330335, "name": "Bellecour \/ République", "amenity": "bicycle_rental", "bounds": "4.8346506, 45.7579395, 4.8346506, 45.7579395" }, "geometry": { "type": "Point", "coordinates": [ 4.834651, 45.757939 ] } },
{ "type": "Feature", "properties": { "uuid": 180, "id": 248811138, "name": "Du Monde Ailleurs", "amenity": "restaurant", "bounds": "4.82726, 45.7452912, 4.82726, 45.7452912" }, "geometry": { "type": "Point", "coordinates": [ 4.82726, 45.745291 ] } },
{ "type": "Feature", "properties": { "uuid": 192, "id": 249498602, "name": "Sanitaire Public du Quai du Maréchal Joffre", "amenity": "toilets", "bounds": "4.8239786, 45.7518321, 4.8239786, 45.7518321" }, "geometry": { "type": "Point", "coordinates": [ 4.823979, 45.751832 ] } },
{ "type": "Feature", "properties": { "uuid": 227, "id": 252521187, "name": "Printemps", "amenity": null, "bounds": "4.8354605, 45.761277, 4.8354605, 45.761277" }, "geometry": { "type": "Point", "coordinates": [ 4.83546, 45.761277 ] } },
{ "type": "Feature", "properties": { "uuid": 237, "id": 254350527, "name": "Häagen-Dazs", "amenity": "ice_cream", "bounds": "4.8351766, 45.7592189, 4.8351766, 45.7592189" }, "geometry": { "type": "Point", "coordinates": [ 4.835177, 45.759219 ] } },
{ "type": "Feature", "properties": { "uuid": 238, "id": 254350528, "name": "Hippopotamus", "amenity": "restaurant", "bounds": "4.8352781, 45.7599768, 4.8352781, 45.7599768" }, "geometry": { "type": "Point", "coordinates": [ 4.835278, 45.759977 ] } },
{ "type": "Feature", "properties": { "uuid": 239, "id": 254350529, "name": "Tony's", "amenity": "restaurant", "bounds": "4.834512, 45.7566528, 4.834512, 45.7566528" }, "geometry": { "type": "Point", "coordinates": [ 4.834512, 45.756653 ] } },
{ "type": "Feature", "properties": { "uuid": 240, "id": 254350530, "name": "Ed's Eat & Drinks", "amenity": "restaurant", "bounds": "4.8347374, 45.7565982, 4.8347374, 45.7565982" }, "geometry": { "type": "Point", "coordinates": [ 4.834737, 45.756598 ] } },
{ "type": "Feature", "properties": { "uuid": 241, "id": 254350531, "name": "Café Français", "amenity": "restaurant", "bounds": "4.8342789, 45.7567112, 4.8342789, 45.7567112" }, "geometry": { "type": "Point", "coordinates": [ 4.834279, 45.756711 ] } },
{ "type": "Feature", "properties": { "uuid": 243, "id": 254351764, "name": "Café Hôtel-Dieu", "amenity": "pub", "bounds": "4.8358796, 45.7591394, 4.8358796, 45.7591394" }, "geometry": { "type": "Point", "coordinates": [ 4.83588, 45.759139 ] } },
{ "type": "Feature", "properties": { "uuid": 253, "id": 257109600, "name": "Sanitaire Public de la Place de l?Hippodrome", "amenity": "toilets", "bounds": "4.8236185, 45.7443906, 4.8236185, 45.7443906" }, "geometry": { "type": "Point", "coordinates": [ 4.823619, 45.744391 ] } },
{ "type": "Feature", "properties": { "uuid": 254, "id": 257109601, "name": "La Calanque", "amenity": "pub", "bounds": "4.8216652, 45.7433896, 4.8216652, 45.7433896" }, "geometry": { "type": "Point", "coordinates": [ 4.821665, 45.74339 ] } },
{ "type": "Feature", "properties": { "uuid": 255, "id": 257109602, "name": "Caisse d'Épargne", "amenity": "bank", "bounds": "4.8238075, 45.7456905, 4.8238075, 45.7456905" }, "geometry": { "type": "Point", "coordinates": [ 4.823808, 45.745691 ] } },
{ "type": "Feature", "properties": { "uuid": 256, "id": 257109603, "name": "Banque Populaire", "amenity": "bank", "bounds": "4.8241495, 45.7461238, 4.8241495, 45.7461238" }, "geometry": { "type": "Point", "coordinates": [ 4.824149, 45.746124 ] } },
{ "type": "Feature", "properties": { "uuid": 257, "id": 257109604, "name": "Petit Casino", "amenity": null, "bounds": "4.8243838, 45.7464823, 4.8243838, 45.7464823" }, "geometry": { "type": "Point", "coordinates": [ 4.824384, 45.746482 ] } },
{ "type": "Feature", "properties": { "uuid": 258, "id": 257109605, "name": "Crédit Agricole", "amenity": "bank", "bounds": "4.8246061, 45.7467627, 4.8246061, 45.7467627" }, "geometry": { "type": "Point", "coordinates": [ 4.824606, 45.746763 ] } },
{ "type": "Feature", "properties": { "uuid": 259, "id": 257109606, "name": "Crédit Mutuel", "amenity": "bank", "bounds": "4.8249842, 45.747209, 4.8249842, 45.747209" }, "geometry": { "type": "Point", "coordinates": [ 4.824984, 45.747209 ] } },
{ "type": "Feature", "properties": { "uuid": 260, "id": 257109610, "name": "Société Générale", "amenity": "bank", "bounds": "4.8289253, 45.7506708, 4.8289253, 45.7506708" }, "geometry": { "type": "Point", "coordinates": [ 4.828925, 45.750671 ] } },
{ "type": "Feature", "properties": { "uuid": 261, "id": 257109612, "name": "Café Vatel", "amenity": "pub", "bounds": "4.8285701, 45.7500656, 4.8285701, 45.7500656" }, "geometry": { "type": "Point", "coordinates": [ 4.82857, 45.750066 ] } },
{ "type": "Feature", "properties": { "uuid": 262, "id": 257109613, "name": "Chez Micheline", "amenity": "restaurant", "bounds": "4.8287766, 45.7504258, 4.8287766, 45.7504258" }, "geometry": { "type": "Point", "coordinates": [ 4.828777, 45.750426 ] } },
{ "type": "Feature", "properties": { "uuid": 263, "id": 257109615, "name": "Pharmacie Perrache Carnot", "amenity": "pharmacy", "bounds": "4.8293928, 45.7514186, 4.8293928, 45.7514186" }, "geometry": { "type": "Point", "coordinates": [ 4.829393, 45.751419 ] } },
{ "type": "Feature", "properties": { "uuid": 264, "id": 257109616, "name": "L'Atelier", "amenity": "restaurant", "bounds": "4.8292256, 45.75146, 4.8292256, 45.75146" }, "geometry": { "type": "Point", "coordinates": [ 4.829226, 45.75146 ] } },
{ "type": "Feature", "properties": { "uuid": 265, "id": 257109617, "name": null, "amenity": "drinking_water", "bounds": "4.8360589, 45.7591178, 4.8360589, 45.7591178" }, "geometry": { "type": "Point", "coordinates": [ 4.836059, 45.759118 ] } },
{ "type": "Feature", "properties": { "uuid": 266, "id": 257109620, "name": "Adonys", "amenity": "restaurant", "bounds": "4.8356149, 45.7583535, 4.8356149, 45.7583535" }, "geometry": { "type": "Point", "coordinates": [ 4.835615, 45.758353 ] } },
{ "type": "Feature", "properties": { "uuid": 267, "id": 257109621, "name": "L'Ippocastano", "amenity": "restaurant", "bounds": "4.8345509, 45.7567767, 4.8345509, 45.7567767" }, "geometry": { "type": "Point", "coordinates": [ 4.834551, 45.756777 ] } },
{ "type": "Feature", "properties": { "uuid": 268, "id": 257109622, "name": "Le Bouchon des Carnivores", "amenity": "restaurant", "bounds": "4.8345751, 45.7568599, 4.8345751, 45.7568599" }, "geometry": { "type": "Point", "coordinates": [ 4.834575, 45.75686 ] } },
{ "type": "Feature", "properties": { "uuid": 269, "id": 257109623, "name": "Chez Fyfy Marronniers", "amenity": "restaurant", "bounds": "4.8346396, 45.7570658, 4.8346396, 45.7570658" }, "geometry": { "type": "Point", "coordinates": [ 4.83464, 45.757066 ] } },
{ "type": "Feature", "properties": { "uuid": 270, "id": 257109625, "name": "Atelier d'Yvonne", "amenity": "restaurant", "bounds": "4.8346935, 45.7572243, 4.8346935, 45.7572243" }, "geometry": { "type": "Point", "coordinates": [ 4.834694, 45.757224 ] } },
{ "type": "Feature", "properties": { "uuid": 271, "id": 257109627, "name": "À la Pêche aux Moules...", "amenity": "restaurant", "bounds": "4.8347817, 45.7575315, 4.8347817, 45.7575315" }, "geometry": { "type": "Point", "coordinates": [ 4.834782, 45.757531 ] } },
{ "type": "Feature", "properties": { "uuid": 272, "id": 257109628, "name": "Yabio Bellecour", "amenity": "restaurant", "bounds": "4.8347314, 45.7573666, 4.8347314, 45.7573666" }, "geometry": { "type": "Point", "coordinates": [ 4.834731, 45.757367 ] } },
{ "type": "Feature", "properties": { "uuid": 273, "id": 257109629, "name": "Chez M'man", "amenity": "restaurant", "bounds": "4.8347446, 45.7574122, 4.8347446, 45.7574122" }, "geometry": { "type": "Point", "coordinates": [ 4.834745, 45.757412 ] } },
{ "type": "Feature", "properties": { "uuid": 274, "id": 257110357, "name": "Comptoir Chabert et Fils", "amenity": "restaurant", "bounds": "4.8347036, 45.7567673, 4.8347036, 45.7567673" }, "geometry": { "type": "Point", "coordinates": [ 4.834704, 45.756767 ] } },
{ "type": "Feature", "properties": { "uuid": 275, "id": 257110364, "name": "Pitaya", "amenity": "restaurant", "bounds": "4.8347231, 45.7568586, 4.8347231, 45.7568586" }, "geometry": { "type": "Point", "coordinates": [ 4.834723, 45.756859 ] } },
{ "type": "Feature", "properties": { "uuid": 276, "id": 257110365, "name": "Les frangins", "amenity": "restaurant", "bounds": "4.8347397, 45.7569242, 4.8347397, 45.7569242" }, "geometry": { "type": "Point", "coordinates": [ 4.83474, 45.756924 ] } },
{ "type": "Feature", "properties": { "uuid": 277, "id": 257110366, "name": "Le Père Fillion", "amenity": "restaurant", "bounds": "4.8347697, 45.7570054, 4.8347697, 45.7570054" }, "geometry": { "type": "Point", "coordinates": [ 4.83477, 45.757005 ] } },
{ "type": "Feature", "properties": { "uuid": 278, "id": 257110367, "name": "La Grange", "amenity": "restaurant", "bounds": "4.8347998, 45.757083, 4.8347998, 45.757083" }, "geometry": { "type": "Point", "coordinates": [ 4.8348, 45.757083 ] } },
{ "type": "Feature", "properties": { "uuid": 279, "id": 257110368, "name": "Le Bon Bourgeois", "amenity": "restaurant", "bounds": "4.8348523, 45.7572105, 4.8348523, 45.7572105" }, "geometry": { "type": "Point", "coordinates": [ 4.834852, 45.75721 ] } },
{ "type": "Feature", "properties": { "uuid": 280, "id": 257110369, "name": "La Mère Jean", "amenity": "restaurant", "bounds": "4.8348649, 45.7572802, 4.8348649, 45.7572802" }, "geometry": { "type": "Point", "coordinates": [ 4.834865, 45.75728 ] } },
{ "type": "Feature", "properties": { "uuid": 281, "id": 257110370, "name": "Le Marronnier", "amenity": "restaurant", "bounds": "4.8348864, 45.7573369, 4.8348864, 45.7573369" }, "geometry": { "type": "Point", "coordinates": [ 4.834886, 45.757337 ] } },
{ "type": "Feature", "properties": { "uuid": 282, "id": 257110371, "name": "Épicerie des Maronniers", "amenity": null, "bounds": "4.8349039, 45.7573763, 4.8349039, 45.7573763" }, "geometry": { "type": "Point", "coordinates": [ 4.834904, 45.757376 ] } },
{ "type": "Feature", "properties": { "uuid": 283, "id": 257110372, "name": "Chez Mounier", "amenity": "restaurant", "bounds": "4.8349238, 45.757427, 4.8349238, 45.757427" }, "geometry": { "type": "Point", "coordinates": [ 4.834924, 45.757427 ] } },
{ "type": "Feature", "properties": { "uuid": 291, "id": 262860897, "name": "Bistrot La Varenne", "amenity": "restaurant", "bounds": "4.8330683, 45.7532398, 4.8330683, 45.7532398" }, "geometry": { "type": "Point", "coordinates": [ 4.833068, 45.75324 ] } },
{ "type": "Feature", "properties": { "uuid": 377, "id": 273204887, "name": "Société Générale", "amenity": "bank", "bounds": "4.8342714, 45.7624072, 4.8342714, 45.7624072" }, "geometry": { "type": "Point", "coordinates": [ 4.834271, 45.762407 ] } },
{ "type": "Feature", "properties": { "uuid": 378, "id": 273209129, "name": "By Johanne", "amenity": null, "bounds": "4.8322113, 45.7595615, 4.8322113, 45.7595615" }, "geometry": { "type": "Point", "coordinates": [ 4.832211, 45.759561 ] } },
{ "type": "Feature", "properties": { "uuid": 379, "id": 273209131, "name": "Pharmacie des Archers", "amenity": "pharmacy", "bounds": "4.8332721, 45.759565, 4.8332721, 45.759565" }, "geometry": { "type": "Point", "coordinates": [ 4.833272, 45.759565 ] } },
{ "type": "Feature", "properties": { "uuid": 380, "id": 273209133, "name": "Banque Populaire", "amenity": "bank", "bounds": "4.833255, 45.7594088, 4.833255, 45.7594088" }, "geometry": { "type": "Point", "coordinates": [ 4.833255, 45.759409 ] } },
{ "type": "Feature", "properties": { "uuid": 381, "id": 273211849, "name": "Pharmacie Reboul", "amenity": "pharmacy", "bounds": "4.8340461, 45.758956, 4.8340461, 45.758956" }, "geometry": { "type": "Point", "coordinates": [ 4.834046, 45.758956 ] } },
{ "type": "Feature", "properties": { "uuid": 382, "id": 273214788, "name": "Casa Nobile", "amenity": "restaurant", "bounds": "4.8359505, 45.7591043, 4.8359505, 45.7591043" }, "geometry": { "type": "Point", "coordinates": [ 4.835951, 45.759104 ] } },
{ "type": "Feature", "properties": { "uuid": 383, "id": 273215336, "name": "Comédie Odéon", "amenity": "theatre", "bounds": "4.8367089, 45.762476, 4.8367089, 45.762476" }, "geometry": { "type": "Point", "coordinates": [ 4.836709, 45.762476 ] } },
{ "type": "Feature", "properties": { "uuid": 402, "id": 314423211, "name": "Chatelon", "amenity": "pharmacy", "bounds": "4.8302729, 45.75301, 4.8302729, 45.75301" }, "geometry": { "type": "Point", "coordinates": [ 4.830273, 45.75301 ] } },
{ "type": "Feature", "properties": { "uuid": 405, "id": 317207665, "name": "Pharmacie de la Grande poste", "amenity": "pharmacy", "bounds": "4.8327864, 45.7555176, 4.8327864, 45.7555176" }, "geometry": { "type": "Point", "coordinates": [ 4.832786, 45.755518 ] } },
{ "type": "Feature", "properties": { "uuid": 406, "id": 317208003, "name": "Pharmacie Limonne", "amenity": "pharmacy", "bounds": "4.8297116, 45.7523478, 4.8297116, 45.7523478" }, "geometry": { "type": "Point", "coordinates": [ 4.829712, 45.752348 ] } },
{ "type": "Feature", "properties": { "uuid": 407, "id": 317320543, "name": "Pharmacie Franklin", "amenity": "pharmacy", "bounds": "4.8279346, 45.7526749, 4.8279346, 45.7526749" }, "geometry": { "type": "Point", "coordinates": [ 4.827935, 45.752675 ] } },
{ "type": "Feature", "properties": { "uuid": 408, "id": 317322002, "name": "Pharmacie du Centre", "amenity": "pharmacy", "bounds": "4.8332351, 45.7621, 4.8332351, 45.7621" }, "geometry": { "type": "Point", "coordinates": [ 4.833235, 45.7621 ] } },
{ "type": "Feature", "properties": { "uuid": 412, "id": 321524128, "name": null, "amenity": "post_box", "bounds": "4.8265506, 45.7507431, 4.8265506, 45.7507431" }, "geometry": { "type": "Point", "coordinates": [ 4.826551, 45.750743 ] } },
{ "type": "Feature", "properties": { "uuid": 413, "id": 321524132, "name": "Accasbel", "amenity": "cafe", "bounds": "4.8264779, 45.7507047, 4.8264779, 45.7507047" }, "geometry": { "type": "Point", "coordinates": [ 4.826478, 45.750705 ] } },
{ "type": "Feature", "properties": { "uuid": 414, "id": 321524144, "name": "Tapas & Moove", "amenity": "bar", "bounds": "4.8264084, 45.7510908, 4.8264084, 45.7510908" }, "geometry": { "type": "Point", "coordinates": [ 4.826408, 45.751091 ] } },
{ "type": "Feature", "properties": { "uuid": 415, "id": 321524165, "name": "Gochi", "amenity": "restaurant", "bounds": "4.8261861, 45.7513335, 4.8261861, 45.7513335" }, "geometry": { "type": "Point", "coordinates": [ 4.826186, 45.751334 ] } },
{ "type": "Feature", "properties": { "uuid": 416, "id": 321524183, "name": "Pog", "amenity": "cafe", "bounds": "4.8263148, 45.7513036, 4.8263148, 45.7513036" }, "geometry": { "type": "Point", "coordinates": [ 4.826315, 45.751304 ] } },
{ "type": "Feature", "properties": { "uuid": 417, "id": 321524194, "name": "Sampa", "amenity": "restaurant", "bounds": "4.825817, 45.7514533, 4.825817, 45.7514533" }, "geometry": { "type": "Point", "coordinates": [ 4.825817, 45.751453 ] } },
{ "type": "Feature", "properties": { "uuid": 440, "id": 347466350, "name": null, "amenity": "bicycle_parking", "bounds": "4.8205345, 45.7425477, 4.8205345, 45.7425477" }, "geometry": { "type": "Point", "coordinates": [ 4.820534, 45.742548 ] } },
{ "type": "Feature", "properties": { "uuid": 441, "id": 347466483, "name": "Patinoire Charlemagne", "amenity": "bicycle_rental", "bounds": "4.820478, 45.7426082, 4.820478, 45.7426082" }, "geometry": { "type": "Point", "coordinates": [ 4.820478, 45.742608 ] } },
{ "type": "Feature", "properties": { "uuid": 442, "id": 347467172, "name": "Place des Archives", "amenity": "bicycle_rental", "bounds": "4.8249831, 45.7479282, 4.8249831, 45.7479282" }, "geometry": { "type": "Point", "coordinates": [ 4.824983, 45.747928 ] } },
{ "type": "Feature", "properties": { "uuid": 443, "id": 347467199, "name": null, "amenity": "bicycle_parking", "bounds": "4.8248567, 45.7479022, 4.8248567, 45.7479022" }, "geometry": { "type": "Point", "coordinates": [ 4.824857, 45.747902 ] } },
{ "type": "Feature", "properties": { "uuid": 446, "id": 347509902, "name": "Place de l'hippodrome", "amenity": "bicycle_rental", "bounds": "4.8235621, 45.7456042, 4.8235621, 45.7456042" }, "geometry": { "type": "Point", "coordinates": [ 4.823562, 45.745604 ] } },
{ "type": "Feature", "properties": { "uuid": 447, "id": 347515328, "name": null, "amenity": "bicycle_parking", "bounds": "4.8271058, 45.7513869, 4.8271058, 45.7513869" }, "geometry": { "type": "Point", "coordinates": [ 4.827106, 45.751387 ] } },
{ "type": "Feature", "properties": { "uuid": 448, "id": 347515887, "name": null, "amenity": "bicycle_parking", "bounds": "4.8344106, 45.7586905, 4.8344106, 45.7586905" }, "geometry": { "type": "Point", "coordinates": [ 4.834411, 45.758691 ] } },
{ "type": "Feature", "properties": { "uuid": 449, "id": 347516116, "name": null, "amenity": "bicycle_parking", "bounds": "4.8358654, 45.7611098, 4.8358654, 45.7611098" }, "geometry": { "type": "Point", "coordinates": [ 4.835865, 45.76111 ] } },
{ "type": "Feature", "properties": { "uuid": 478, "id": 349906231, "name": "République \/ Maupin", "amenity": "bicycle_rental", "bounds": "4.8340551, 45.7587435, 4.8340551, 45.7587435" }, "geometry": { "type": "Point", "coordinates": [ 4.834055, 45.758744 ] } },
{ "type": "Feature", "properties": { "uuid": 479, "id": 349906263, "name": "République \/ Paufique", "amenity": "bicycle_rental", "bounds": "4.835398, 45.7593895, 4.835398, 45.7593895" }, "geometry": { "type": "Point", "coordinates": [ 4.835398, 45.759389 ] } },
{ "type": "Feature", "properties": { "uuid": 572, "id": 354843618, "name": null, "amenity": "bicycle_parking", "bounds": "4.8236044, 45.7443287, 4.8236044, 45.7443287" }, "geometry": { "type": "Point", "coordinates": [ 4.823604, 45.744329 ] } },
{ "type": "Feature", "properties": { "uuid": 573, "id": 354843751, "name": null, "amenity": "bicycle_parking", "bounds": "4.8216903, 45.7438968, 4.8216903, 45.7438968" }, "geometry": { "type": "Point", "coordinates": [ 4.82169, 45.743897 ] } },
{ "type": "Feature", "properties": { "uuid": 574, "id": 354843788, "name": "Sainte-Blandine", "amenity": "bicycle_rental", "bounds": "4.8219782, 45.7442041, 4.8219782, 45.7442041" }, "geometry": { "type": "Point", "coordinates": [ 4.821978, 45.744204 ] } },
{ "type": "Feature", "properties": { "uuid": 575, "id": 354843991, "name": null, "amenity": "bicycle_parking", "bounds": "4.8208186, 45.7428789, 4.8208186, 45.7428789" }, "geometry": { "type": "Point", "coordinates": [ 4.820819, 45.742879 ] } },
{ "type": "Feature", "properties": { "uuid": 578, "id": 355958585, "name": null, "amenity": "bicycle_parking", "bounds": "4.8248193, 45.7475239, 4.8248193, 45.7475239" }, "geometry": { "type": "Point", "coordinates": [ 4.824819, 45.747524 ] } },
{ "type": "Feature", "properties": { "uuid": 579, "id": 355958586, "name": null, "amenity": "bicycle_parking", "bounds": "4.824224, 45.746509, 4.824224, 45.746509" }, "geometry": { "type": "Point", "coordinates": [ 4.824224, 45.746509 ] } },
{ "type": "Feature", "properties": { "uuid": 580, "id": 355958590, "name": null, "amenity": "bicycle_parking", "bounds": "4.823807, 45.7412792, 4.823807, 45.7412792" }, "geometry": { "type": "Point", "coordinates": [ 4.823807, 45.741279 ] } },
{ "type": "Feature", "properties": { "uuid": 581, "id": 355958591, "name": "Place Carnot", "amenity": "bicycle_rental", "bounds": "4.8269565, 45.751297, 4.8269565, 45.751297" }, "geometry": { "type": "Point", "coordinates": [ 4.826956, 45.751297 ] } },
{ "type": "Feature", "properties": { "uuid": 582, "id": 355958593, "name": null, "amenity": "bicycle_parking", "bounds": "4.8269777, 45.7513616, 4.8269777, 45.7513616" }, "geometry": { "type": "Point", "coordinates": [ 4.826978, 45.751362 ] } },
{ "type": "Feature", "properties": { "uuid": 583, "id": 355958595, "name": "Perrache \/ Carnot", "amenity": "bicycle_rental", "bounds": "4.8280388, 45.7500824, 4.8280388, 45.7500824" }, "geometry": { "type": "Point", "coordinates": [ 4.828039, 45.750082 ] } },
{ "type": "Feature", "properties": { "uuid": 584, "id": 355958596, "name": "Sanitaire Public de la Place Carnot", "amenity": "toilets", "bounds": "4.8270946, 45.7511993, 4.8270946, 45.7511993" }, "geometry": { "type": "Point", "coordinates": [ 4.827095, 45.751199 ] } },
{ "type": "Feature", "properties": { "uuid": 591, "id": 356462419, "name": null, "amenity": "bicycle_parking", "bounds": "4.8356962, 45.7562722, 4.8356962, 45.7562722" }, "geometry": { "type": "Point", "coordinates": [ 4.835696, 45.756272 ] } },
{ "type": "Feature", "properties": { "uuid": 592, "id": 356462422, "name": null, "amenity": "bicycle_parking", "bounds": "4.8322225, 45.7571705, 4.8322225, 45.7571705" }, "geometry": { "type": "Point", "coordinates": [ 4.832223, 45.757171 ] } },
{ "type": "Feature", "properties": { "uuid": 593, "id": 356462424, "name": null, "amenity": "bicycle_parking", "bounds": "4.8307654, 45.7569103, 4.8307654, 45.7569103" }, "geometry": { "type": "Point", "coordinates": [ 4.830765, 45.75691 ] } },
{ "type": "Feature", "properties": { "uuid": 594, "id": 356462427, "name": null, "amenity": "bicycle_parking", "bounds": "4.8298822, 45.7570821, 4.8298822, 45.7570821" }, "geometry": { "type": "Point", "coordinates": [ 4.829882, 45.757082 ] } },
{ "type": "Feature", "properties": { "uuid": 595, "id": 356462430, "name": null, "amenity": "bicycle_parking", "bounds": "4.8285628, 45.7569994, 4.8285628, 45.7569994" }, "geometry": { "type": "Point", "coordinates": [ 4.828563, 45.756999 ] } },
{ "type": "Feature", "properties": { "uuid": 596, "id": 356462433, "name": null, "amenity": "bicycle_parking", "bounds": "4.8276173, 45.7557775, 4.8276173, 45.7557775" }, "geometry": { "type": "Point", "coordinates": [ 4.827617, 45.755778 ] } },
{ "type": "Feature", "properties": { "uuid": 597, "id": 356462435, "name": null, "amenity": "bicycle_parking", "bounds": "4.8269513, 45.7558946, 4.8269513, 45.7558946" }, "geometry": { "type": "Point", "coordinates": [ 4.826951, 45.755895 ] } },
{ "type": "Feature", "properties": { "uuid": 598, "id": 356462438, "name": null, "amenity": "bicycle_parking", "bounds": "4.8277887, 45.7547726, 4.8277887, 45.7547726" }, "geometry": { "type": "Point", "coordinates": [ 4.827789, 45.754773 ] } },
{ "type": "Feature", "properties": { "uuid": 599, "id": 356462441, "name": null, "amenity": "bicycle_parking", "bounds": "4.8304856, 45.7553571, 4.8304856, 45.7553571" }, "geometry": { "type": "Point", "coordinates": [ 4.830486, 45.755357 ] } },
{ "type": "Feature", "properties": { "uuid": 600, "id": 356462446, "name": null, "amenity": "bicycle_parking", "bounds": "4.8327718, 45.7535249, 4.8327718, 45.7535249" }, "geometry": { "type": "Point", "coordinates": [ 4.832772, 45.753525 ] } },
{ "type": "Feature", "properties": { "uuid": 601, "id": 356462449, "name": null, "amenity": "bicycle_parking", "bounds": "4.831765, 45.7539984, 4.831765, 45.7539984" }, "geometry": { "type": "Point", "coordinates": [ 4.831765, 45.753998 ] } },
{ "type": "Feature", "properties": { "uuid": 602, "id": 356462452, "name": null, "amenity": "bicycle_parking", "bounds": "4.8330467, 45.7559019, 4.8330467, 45.7559019" }, "geometry": { "type": "Point", "coordinates": [ 4.833047, 45.755902 ] } },
{ "type": "Feature", "properties": { "uuid": 603, "id": 356634731, "name": null, "amenity": "bicycle_parking", "bounds": "4.8269744, 45.7532207, 4.8269744, 45.7532207" }, "geometry": { "type": "Point", "coordinates": [ 4.826974, 45.753221 ] } },
{ "type": "Feature", "properties": { "uuid": 604, "id": 356634732, "name": null, "amenity": "bicycle_parking", "bounds": "4.8286802, 45.7533744, 4.8286802, 45.7533744" }, "geometry": { "type": "Point", "coordinates": [ 4.82868, 45.753374 ] } },
{ "type": "Feature", "properties": { "uuid": 605, "id": 356634733, "name": "Place Ampère", "amenity": "bicycle_rental", "bounds": "4.8283178, 45.7530439, 4.8283178, 45.7530439" }, "geometry": { "type": "Point", "coordinates": [ 4.828318, 45.753044 ] } },
{ "type": "Feature", "properties": { "uuid": 606, "id": 356634735, "name": null, "amenity": "bicycle_parking", "bounds": "4.8297497, 45.7530553, 4.8297497, 45.7530553" }, "geometry": { "type": "Point", "coordinates": [ 4.82975, 45.753055 ] } },
{ "type": "Feature", "properties": { "uuid": 607, "id": 356634738, "name": null, "amenity": "bicycle_parking", "bounds": "4.8296875, 45.7547166, 4.8296875, 45.7547166" }, "geometry": { "type": "Point", "coordinates": [ 4.829688, 45.754717 ] } },
{ "type": "Feature", "properties": { "uuid": 608, "id": 356637753, "name": "Charité \/ Récamier", "amenity": "bicycle_rental", "bounds": "4.8298432, 45.7492534, 4.8298432, 45.7492534" }, "geometry": { "type": "Point", "coordinates": [ 4.829843, 45.749253 ] } },
{ "type": "Feature", "properties": { "uuid": 609, "id": 356638069, "name": "Gailleton", "amenity": "bicycle_rental", "bounds": "4.8333704, 45.7534601, 4.8333704, 45.7534601" }, "geometry": { "type": "Point", "coordinates": [ 4.83337, 45.75346 ] } },
{ "type": "Feature", "properties": { "uuid": 610, "id": 356638926, "name": null, "amenity": "bicycle_parking", "bounds": "4.8290205, 45.7550477, 4.8290205, 45.7550477" }, "geometry": { "type": "Point", "coordinates": [ 4.829021, 45.755048 ] } },
{ "type": "Feature", "properties": { "uuid": 611, "id": 362068913, "name": null, "amenity": "bicycle_parking", "bounds": "4.828425, 45.7516477, 4.828425, 45.7516477" }, "geometry": { "type": "Point", "coordinates": [ 4.828425, 45.751648 ] } },
{ "type": "Feature", "properties": { "uuid": 696, "id": 363529721, "name": null, "amenity": "motorcycle_parking", "bounds": "4.8338442, 45.7583209, 4.8338442, 45.7583209" }, "geometry": { "type": "Point", "coordinates": [ 4.833844, 45.758321 ] } },
{ "type": "Feature", "properties": { "uuid": 697, "id": 363529722, "name": "Célestins", "amenity": "bicycle_rental", "bounds": "4.8319804, 45.7599743, 4.8319804, 45.7599743" }, "geometry": { "type": "Point", "coordinates": [ 4.83198, 45.759974 ] } },
{ "type": "Feature", "properties": { "uuid": 698, "id": 363529723, "name": "Place Gourju", "amenity": "bicycle_rental", "bounds": "4.8301292, 45.7595489, 4.8301292, 45.7595489" }, "geometry": { "type": "Point", "coordinates": [ 4.830129, 45.759549 ] } },
{ "type": "Feature", "properties": { "uuid": 699, "id": 363529724, "name": "Bellecour \/ St Exupéry", "amenity": "bicycle_rental", "bounds": "4.830426, 45.7581625, 4.830426, 45.7581625" }, "geometry": { "type": "Point", "coordinates": [ 4.830426, 45.758162 ] } },
{ "type": "Feature", "properties": { "uuid": 710, "id": 363769782, "name": "Jacobins", "amenity": "bicycle_rental", "bounds": "4.8343093, 45.7607567, 4.8343093, 45.7607567" }, "geometry": { "type": "Point", "coordinates": [ 4.834309, 45.760757 ] } },
{ "type": "Feature", "properties": { "uuid": 711, "id": 363769785, "name": null, "amenity": "bicycle_parking", "bounds": "4.8371374, 45.7623593, 4.8371374, 45.7623593" }, "geometry": { "type": "Point", "coordinates": [ 4.837137, 45.762359 ] } },
{ "type": "Feature", "properties": { "uuid": 712, "id": 363769788, "name": "République \/ Ferrandière", "amenity": "bicycle_rental", "bounds": "4.836036, 45.7621669, 4.836036, 45.7621669" }, "geometry": { "type": "Point", "coordinates": [ 4.836036, 45.762167 ] } },
{ "type": "Feature", "properties": { "uuid": 728, "id": 363769870, "name": null, "amenity": "bicycle_parking", "bounds": "4.8341322, 45.763109, 4.8341322, 45.763109" }, "geometry": { "type": "Point", "coordinates": [ 4.834132, 45.763109 ] } },
{ "type": "Feature", "properties": { "uuid": 729, "id": 363769877, "name": null, "amenity": "bicycle_parking", "bounds": "4.83128, 45.7612702, 4.83128, 45.7612702" }, "geometry": { "type": "Point", "coordinates": [ 4.83128, 45.76127 ] } },
{ "type": "Feature", "properties": { "uuid": 730, "id": 363769885, "name": "Sanitaire Public du Quai Saint-Antoine", "amenity": "toilets", "bounds": "4.831406, 45.7620722, 4.831406, 45.7620722" }, "geometry": { "type": "Point", "coordinates": [ 4.831406, 45.762072 ] } },
{ "type": "Feature", "properties": { "uuid": 731, "id": 363769889, "name": null, "amenity": "drinking_water", "bounds": "4.8314554, 45.7621217, 4.8314554, 45.7621217" }, "geometry": { "type": "Point", "coordinates": [ 4.831455, 45.762122 ] } },
{ "type": "Feature", "properties": { "uuid": 732, "id": 363769893, "name": "Place Regaud", "amenity": "bicycle_rental", "bounds": "4.8342526, 45.7630955, 4.8342526, 45.7630955" }, "geometry": { "type": "Point", "coordinates": [ 4.834253, 45.763095 ] } },
{ "type": "Feature", "properties": { "uuid": 733, "id": 363769901, "name": "Mercière \/ Ferrandière", "amenity": "bicycle_rental", "bounds": "4.8331918, 45.7620577, 4.8331918, 45.7620577" }, "geometry": { "type": "Point", "coordinates": [ 4.833192, 45.762058 ] } },
{ "type": "Feature", "properties": { "uuid": 734, "id": 363769905, "name": "Sanitaire Public du Quai des Célestins", "amenity": "toilets", "bounds": "4.8304508, 45.7603524, 4.8304508, 45.7603524" }, "geometry": { "type": "Point", "coordinates": [ 4.830451, 45.760352 ] } },
{ "type": "Feature", "properties": { "uuid": 738, "id": 364141593, "name": null, "amenity": "bicycle_parking", "bounds": "4.8149603, 45.738211, 4.8149603, 45.738211" }, "geometry": { "type": "Point", "coordinates": [ 4.81496, 45.738211 ] } },
{ "type": "Feature", "properties": { "uuid": 740, "id": 365109182, "name": "Place de la République", "amenity": "bicycle_rental", "bounds": "4.8363083, 45.7606903, 4.8363083, 45.7606903" }, "geometry": { "type": "Point", "coordinates": [ 4.836308, 45.76069 ] } },
{ "type": "Feature", "properties": { "uuid": 742, "id": 365109990, "name": null, "amenity": "bicycle_parking", "bounds": "4.8350078, 45.7616905, 4.8350078, 45.7616905" }, "geometry": { "type": "Point", "coordinates": [ 4.835008, 45.761691 ] } },
{ "type": "Feature", "properties": { "uuid": 743, "id": 365110912, "name": "Childebert \/ République", "amenity": "bicycle_rental", "bounds": "4.8357882, 45.7598799, 4.8357882, 45.7598799" }, "geometry": { "type": "Point", "coordinates": [ 4.835788, 45.75988 ] } },
{ "type": "Feature", "properties": { "uuid": 747, "id": 367622567, "name": null, "amenity": "bicycle_parking", "bounds": "4.8287189, 45.7525759, 4.8287189, 45.7525759" }, "geometry": { "type": "Point", "coordinates": [ 4.828719, 45.752576 ] } },
{ "type": "Feature", "properties": { "uuid": 933, "id": 508913109, "name": "Maison Pozzoli Presqu?île", "amenity": null, "bounds": "4.834741, 45.7620689, 4.834741, 45.7620689" }, "geometry": { "type": "Point", "coordinates": [ 4.834741, 45.762069 ] } },
{ "type": "Feature", "properties": { "uuid": 941, "id": 518976348, "name": "Grand Café des Négociants", "amenity": "restaurant", "bounds": "4.8345326, 45.7632864, 4.8345326, 45.7632864" }, "geometry": { "type": "Point", "coordinates": [ 4.834533, 45.763286 ] } },
{ "type": "Feature", "properties": { "uuid": 1035, "id": 573267936, "name": "Lidl", "amenity": null, "bounds": "4.8205419, 45.7429474, 4.8205419, 45.7429474" }, "geometry": { "type": "Point", "coordinates": [ 4.820542, 45.742947 ] } },
{ "type": "Feature", "properties": { "uuid": 1057, "id": 618567691, "name": "Fédération Française de Spéléologie", "amenity": "public_building", "bounds": "4.8255886, 45.7449743, 4.8255886, 45.7449743" }, "geometry": { "type": "Point", "coordinates": [ 4.825589, 45.744974 ] } },
{ "type": "Feature", "properties": { "uuid": 1058, "id": 618567692, "name": "Le Pap", "amenity": "restaurant", "bounds": "4.8259826, 45.745075, 4.8259826, 45.745075" }, "geometry": { "type": "Point", "coordinates": [ 4.825983, 45.745075 ] } },
{ "type": "Feature", "properties": { "uuid": 1059, "id": 618652088, "name": "Restaurant l'Amandine", "amenity": "restaurant", "bounds": "4.8257745, 45.7448297, 4.8257745, 45.7448297" }, "geometry": { "type": "Point", "coordinates": [ 4.825774, 45.74483 ] } },
{ "type": "Feature", "properties": { "uuid": 1160, "id": 706527679, "name": null, "amenity": "drinking_water", "bounds": "4.8316951, 45.7549725, 4.8316951, 45.7549725" }, "geometry": { "type": "Point", "coordinates": [ 4.831695, 45.754973 ] } },
{ "type": "Feature", "properties": { "uuid": 1164, "id": 712926816, "name": "Perrache Effia", "amenity": "parking", "bounds": "4.8257108, 45.7471615, 4.8257108, 45.7471615" }, "geometry": { "type": "Point", "coordinates": [ 4.825711, 45.747161 ] } },
{ "type": "Feature", "properties": { "uuid": 1176, "id": 734945429, "name": null, "amenity": null, "bounds": "4.8354576, 45.7608101, 4.8354576, 45.7608101" }, "geometry": { "type": "Point", "coordinates": [ 4.835458, 45.76081 ] } },
{ "type": "Feature", "properties": { "uuid": 1177, "id": 734946156, "name": "Crédit Agricole", "amenity": "bank", "bounds": "4.8370304, 45.7600335, 4.8370304, 45.7600335" }, "geometry": { "type": "Point", "coordinates": [ 4.83703, 45.760033 ] } },
{ "type": "Feature", "properties": { "uuid": 1179, "id": 761234113, "name": null, "amenity": "bench", "bounds": "4.8316511, 45.7549944, 4.8316511, 45.7549944" }, "geometry": { "type": "Point", "coordinates": [ 4.831651, 45.754994 ] } },
{ "type": "Feature", "properties": { "uuid": 1180, "id": 761234136, "name": null, "amenity": "bench", "bounds": "4.8315804, 45.7551554, 4.8315804, 45.7551554" }, "geometry": { "type": "Point", "coordinates": [ 4.83158, 45.755155 ] } },
{ "type": "Feature", "properties": { "uuid": 1181, "id": 761234144, "name": null, "amenity": "bench", "bounds": "4.8315875, 45.7550177, 4.8315875, 45.7550177" }, "geometry": { "type": "Point", "coordinates": [ 4.831588, 45.755018 ] } },
{ "type": "Feature", "properties": { "uuid": 1182, "id": 761234160, "name": null, "amenity": "bench", "bounds": "4.8315239, 45.7550409, 4.8315239, 45.7550409" }, "geometry": { "type": "Point", "coordinates": [ 4.831524, 45.755041 ] } },
{ "type": "Feature", "properties": { "uuid": 1183, "id": 761234167, "name": null, "amenity": "bench", "bounds": "4.8317182, 45.7551198, 4.8317182, 45.7551198" }, "geometry": { "type": "Point", "coordinates": [ 4.831718, 45.75512 ] } },
{ "type": "Feature", "properties": { "uuid": 1184, "id": 761234183, "name": null, "amenity": "bench", "bounds": "4.8316493, 45.7551376, 4.8316493, 45.7551376" }, "geometry": { "type": "Point", "coordinates": [ 4.831649, 45.755138 ] } },
{ "type": "Feature", "properties": { "uuid": 1191, "id": 769188480, "name": "Pizzeria Le Canissou", "amenity": "restaurant", "bounds": "4.8233838, 45.7469446, 4.8233838, 45.7469446" }, "geometry": { "type": "Point", "coordinates": [ 4.823384, 45.746945 ] } },
{ "type": "Feature", "properties": { "uuid": 1213, "id": 820883630, "name": "Bureau de poste Saint-Antoine", "amenity": "post_office", "bounds": "4.8319692, 45.7620189, 4.8319692, 45.7620189" }, "geometry": { "type": "Point", "coordinates": [ 4.831969, 45.762019 ] } },
{ "type": "Feature", "properties": { "uuid": 1214, "id": 828579675, "name": "Brasserie Georges", "amenity": "restaurant", "bounds": "4.8283428, 45.7483221, 4.8283428, 45.7483221" }, "geometry": { "type": "Point", "coordinates": [ 4.828343, 45.748322 ] } },
{ "type": "Feature", "properties": { "uuid": 1217, "id": 828876013, "name": "Parc Tilsitt", "amenity": "parking", "bounds": "4.8267269, 45.756425, 4.8267269, 45.756425" }, "geometry": { "type": "Point", "coordinates": [ 4.826727, 45.756425 ] } },
{ "type": "Feature", "properties": { "uuid": 1218, "id": 828876035, "name": "Casino Shop", "amenity": null, "bounds": "4.8298542, 45.7589866, 4.8298542, 45.7589866" }, "geometry": { "type": "Point", "coordinates": [ 4.829854, 45.758987 ] } },
{ "type": "Feature", "properties": { "uuid": 1219, "id": 829114757, "name": "Sanitaire Public de la Confluence", "amenity": "toilets", "bounds": "4.8149879, 45.7434605, 4.8149879, 45.7434605" }, "geometry": { "type": "Point", "coordinates": [ 4.814988, 45.74346 ] } },
{ "type": "Feature", "properties": { "uuid": 1220, "id": 829114781, "name": null, "amenity": "drinking_water", "bounds": "4.8148977, 45.7435042, 4.8148977, 45.7435042" }, "geometry": { "type": "Point", "coordinates": [ 4.814898, 45.743504 ] } },
{ "type": "Feature", "properties": { "uuid": 1221, "id": 830263191, "name": "Selcius", "amenity": "bar", "bounds": "4.8144955, 45.7387685, 4.8144955, 45.7387685" }, "geometry": { "type": "Point", "coordinates": [ 4.814495, 45.738768 ] } },
{ "type": "Feature", "properties": { "uuid": 1222, "id": 830263288, "name": "Docks 40", "amenity": "restaurant", "bounds": "4.8143115, 45.7397704, 4.8143115, 45.7397704" }, "geometry": { "type": "Point", "coordinates": [ 4.814311, 45.73977 ] } },
{ "type": "Feature", "properties": { "uuid": 1223, "id": 830263294, "name": "Fratelli Ristorante", "amenity": "restaurant", "bounds": "4.8146568, 45.7379739, 4.8146568, 45.7379739" }, "geometry": { "type": "Point", "coordinates": [ 4.814657, 45.737974 ] } },
{ "type": "Feature", "properties": { "uuid": 1224, "id": 830263332, "name": null, "amenity": "drinking_water", "bounds": "4.8150712, 45.7401911, 4.8150712, 45.7401911" }, "geometry": { "type": "Point", "coordinates": [ 4.815071, 45.740191 ] } },
{ "type": "Feature", "properties": { "uuid": 1225, "id": 830451556, "name": "Perrache", "amenity": "parking_entrance", "bounds": "4.8271352, 45.7491527, 4.8271352, 45.7491527" }, "geometry": { "type": "Point", "coordinates": [ 4.827135, 45.749153 ] } },
{ "type": "Feature", "properties": { "uuid": 1226, "id": 830451660, "name": "Perrache", "amenity": "parking_entrance", "bounds": "4.8264828, 45.7500673, 4.8264828, 45.7500673" }, "geometry": { "type": "Point", "coordinates": [ 4.826483, 45.750067 ] } },
{ "type": "Feature", "properties": { "uuid": 1227, "id": 830451777, "name": "Perrache", "amenity": "parking_entrance", "bounds": "4.826113, 45.7494811, 4.826113, 45.7494811" }, "geometry": { "type": "Point", "coordinates": [ 4.826113, 45.749481 ] } },
{ "type": "Feature", "properties": { "uuid": 1228, "id": 831557059, "name": null, "amenity": "post_box", "bounds": "4.82239, 45.7442608, 4.82239, 45.7442608" }, "geometry": { "type": "Point", "coordinates": [ 4.82239, 45.744261 ] } },
{ "type": "Feature", "properties": { "uuid": 1229, "id": 831557126, "name": "Monna Lisa", "amenity": "restaurant", "bounds": "4.8230142, 45.7455899, 4.8230142, 45.7455899" }, "geometry": { "type": "Point", "coordinates": [ 4.823014, 45.74559 ] } },
{ "type": "Feature", "properties": { "uuid": 1230, "id": 831557159, "name": "Confluence Laverie", "amenity": null, "bounds": "4.8231349, 45.7457359, 4.8231349, 45.7457359" }, "geometry": { "type": "Point", "coordinates": [ 4.823135, 45.745736 ] } },
{ "type": "Feature", "properties": { "uuid": 1231, "id": 831557164, "name": null, "amenity": null, "bounds": "4.8249516, 45.747053, 4.8249516, 45.747053" }, "geometry": { "type": "Point", "coordinates": [ 4.824952, 45.747053 ] } },
{ "type": "Feature", "properties": { "uuid": 1232, "id": 831557230, "name": "Grande Pharmacie des Voutes", "amenity": "pharmacy", "bounds": "4.8249322, 45.7471602, 4.8249322, 45.7471602" }, "geometry": { "type": "Point", "coordinates": [ 4.824932, 45.74716 ] } },
{ "type": "Feature", "properties": { "uuid": 1233, "id": 831557311, "name": null, "amenity": "drinking_water", "bounds": "4.8174511, 45.7464593, 4.8174511, 45.7464593" }, "geometry": { "type": "Point", "coordinates": [ 4.817451, 45.746459 ] } },
{ "type": "Feature", "properties": { "uuid": 1234, "id": 831557365, "name": null, "amenity": "bicycle_parking", "bounds": "4.8184249, 45.7418668, 4.8184249, 45.7418668" }, "geometry": { "type": "Point", "coordinates": [ 4.818425, 45.741867 ] } },
{ "type": "Feature", "properties": { "uuid": 1235, "id": 831557379, "name": null, "amenity": "bicycle_parking", "bounds": "4.8162098, 45.7427867, 4.8162098, 45.7427867" }, "geometry": { "type": "Point", "coordinates": [ 4.81621, 45.742787 ] } },
{ "type": "Feature", "properties": { "uuid": 1251, "id": 853133132, "name": null, "amenity": "drinking_water", "bounds": "4.8326764, 45.7569801, 4.8326764, 45.7569801" }, "geometry": { "type": "Point", "coordinates": [ 4.832676, 45.75698 ] } },
{ "type": "Feature", "properties": { "uuid": 1269, "id": 907450853, "name": "Bateau Hermès", "amenity": "restaurant", "bounds": "4.8180489, 45.7473, 4.8180489, 45.7473" }, "geometry": { "type": "Point", "coordinates": [ 4.818049, 45.7473 ] } },
{ "type": "Feature", "properties": { "uuid": 1270, "id": 915437277, "name": "Brasserie Midi Minuit", "amenity": "restaurant", "bounds": "4.8210689, 45.7426026, 4.8210689, 45.7426026" }, "geometry": { "type": "Point", "coordinates": [ 4.821069, 45.742603 ] } },
{ "type": "Feature", "properties": { "uuid": 1324, "id": 957978654, "name": null, "amenity": "waste_basket", "bounds": "4.8321973, 45.7547698, 4.8321973, 45.7547698" }, "geometry": { "type": "Point", "coordinates": [ 4.832197, 45.75477 ] } },
{ "type": "Feature", "properties": { "uuid": 1325, "id": 959179715, "name": null, "amenity": "post_box", "bounds": "4.8344649, 45.7579897, 4.8344649, 45.7579897" }, "geometry": { "type": "Point", "coordinates": [ 4.834465, 45.75799 ] } },
{ "type": "Feature", "properties": { "uuid": 1326, "id": 959248415, "name": null, "amenity": "post_box", "bounds": "4.8316063, 45.7610166, 4.8316063, 45.7610166" }, "geometry": { "type": "Point", "coordinates": [ 4.831606, 45.761017 ] } },
{ "type": "Feature", "properties": { "uuid": 1327, "id": 959438313, "name": "Parc Antonin Poncet - LPA", "amenity": "parking", "bounds": "4.8357627, 45.7562829, 4.8357627, 45.7562829" }, "geometry": { "type": "Point", "coordinates": [ 4.835763, 45.756283 ] } },
{ "type": "Feature", "properties": { "uuid": 1328, "id": 959438326, "name": null, "amenity": "parking_entrance", "bounds": "4.8352655, 45.7556095, 4.8352655, 45.7556095" }, "geometry": { "type": "Point", "coordinates": [ 4.835266, 45.755609 ] } },
{ "type": "Feature", "properties": { "uuid": 1329, "id": 959448843, "name": "Parc République", "amenity": "parking_entrance", "bounds": "4.836407, 45.7601575, 4.836407, 45.7601575" }, "geometry": { "type": "Point", "coordinates": [ 4.836407, 45.760157 ] } },
{ "type": "Feature", "properties": { "uuid": 1330, "id": 959448853, "name": null, "amenity": "parking_entrance", "bounds": "4.8371714, 45.760135, 4.8371714, 45.760135" }, "geometry": { "type": "Point", "coordinates": [ 4.837171, 45.760135 ] } },
{ "type": "Feature", "properties": { "uuid": 1332, "id": 960150223, "name": null, "amenity": "parking_entrance", "bounds": "4.8306329, 45.7578268, 4.8306329, 45.7578268" }, "geometry": { "type": "Point", "coordinates": [ 4.830633, 45.757827 ] } },
{ "type": "Feature", "properties": { "uuid": 1333, "id": 960150230, "name": null, "amenity": "parking_entrance", "bounds": "4.8310307, 45.7585056, 4.8310307, 45.7585056" }, "geometry": { "type": "Point", "coordinates": [ 4.831031, 45.758506 ] } },
{ "type": "Feature", "properties": { "uuid": 1334, "id": 960540579, "name": "Sala \/ Charité", "amenity": "bicycle_rental", "bounds": "4.8329439, 45.7545057, 4.8329439, 45.7545057" }, "geometry": { "type": "Point", "coordinates": [ 4.832944, 45.754506 ] } },
{ "type": "Feature", "properties": { "uuid": 1378, "id": 1020009575, "name": null, "amenity": "bicycle_parking", "bounds": "4.8326105, 45.7554105, 4.8326105, 45.7554105" }, "geometry": { "type": "Point", "coordinates": [ 4.832611, 45.755411 ] } },
{ "type": "Feature", "properties": { "uuid": 1384, "id": 1029452387, "name": null, "amenity": "bicycle_parking", "bounds": "4.827145, 45.7540054, 4.827145, 45.7540054" }, "geometry": { "type": "Point", "coordinates": [ 4.827145, 45.754005 ] } },
{ "type": "Feature", "properties": { "uuid": 1408, "id": 1049497949, "name": null, "amenity": "post_box", "bounds": "4.8272477, 45.7487962, 4.8272477, 45.7487962" }, "geometry": { "type": "Point", "coordinates": [ 4.827248, 45.748796 ] } },
{ "type": "Feature", "properties": { "uuid": 1410, "id": 1049498065, "name": null, "amenity": "recycling", "bounds": "4.8297396, 45.7492491, 4.8297396, 45.7492491" }, "geometry": { "type": "Point", "coordinates": [ 4.82974, 45.749249 ] } },
{ "type": "Feature", "properties": { "uuid": 1411, "id": 1049498110, "name": null, "amenity": "bicycle_parking", "bounds": "4.8274703, 45.7486558, 4.8274703, 45.7486558" }, "geometry": { "type": "Point", "coordinates": [ 4.82747, 45.748656 ] } },
{ "type": "Feature", "properties": { "uuid": 1457, "id": 1215756081, "name": null, "amenity": "bicycle_parking", "bounds": "4.8222367, 45.7441357, 4.8222367, 45.7441357" }, "geometry": { "type": "Point", "coordinates": [ 4.822237, 45.744136 ] } },
{ "type": "Feature", "properties": { "uuid": 1458, "id": 1215756084, "name": null, "amenity": "bicycle_parking", "bounds": "4.8217074, 45.7434961, 4.8217074, 45.7434961" }, "geometry": { "type": "Point", "coordinates": [ 4.821707, 45.743496 ] } },
{ "type": "Feature", "properties": { "uuid": 1459, "id": 1215756091, "name": "Le Saint-Honoré", "amenity": null, "bounds": "4.8218033, 45.7434753, 4.8218033, 45.7434753" }, "geometry": { "type": "Point", "coordinates": [ 4.821803, 45.743475 ] } },
{ "type": "Feature", "properties": { "uuid": 1460, "id": 1215756093, "name": null, "amenity": "bicycle_parking", "bounds": "4.8249963, 45.7473968, 4.8249963, 45.7473968" }, "geometry": { "type": "Point", "coordinates": [ 4.824996, 45.747397 ] } },
{ "type": "Feature", "properties": { "uuid": 1464, "id": 1234863192, "name": null, "amenity": "drinking_water", "bounds": "4.8175151, 45.7442016, 4.8175151, 45.7442016" }, "geometry": { "type": "Point", "coordinates": [ 4.817515, 45.744202 ] } },
{ "type": "Feature", "properties": { "uuid": 1465, "id": 1234863200, "name": null, "amenity": "waste_basket", "bounds": "4.8177305, 45.7439656, 4.8177305, 45.7439656" }, "geometry": { "type": "Point", "coordinates": [ 4.81773, 45.743966 ] } },
{ "type": "Feature", "properties": { "uuid": 1466, "id": 1234863202, "name": null, "amenity": "waste_basket", "bounds": "4.8200039, 45.7444816, 4.8200039, 45.7444816" }, "geometry": { "type": "Point", "coordinates": [ 4.820004, 45.744482 ] } },
{ "type": "Feature", "properties": { "uuid": 1467, "id": 1234863206, "name": null, "amenity": "waste_basket", "bounds": "4.8183986, 45.7419267, 4.8183986, 45.7419267" }, "geometry": { "type": "Point", "coordinates": [ 4.818399, 45.741927 ] } },
{ "type": "Feature", "properties": { "uuid": 1468, "id": 1234863218, "name": null, "amenity": "bicycle_parking", "bounds": "4.8202035, 45.7445083, 4.8202035, 45.7445083" }, "geometry": { "type": "Point", "coordinates": [ 4.820203, 45.744508 ] } },
{ "type": "Feature", "properties": { "uuid": 1469, "id": 1234863220, "name": null, "amenity": "recycling", "bounds": "4.8188228, 45.7435366, 4.8188228, 45.7435366" }, "geometry": { "type": "Point", "coordinates": [ 4.818823, 45.743537 ] } },
{ "type": "Feature", "properties": { "uuid": 1470, "id": 1234863222, "name": null, "amenity": "recycling", "bounds": "4.8199532, 45.7414285, 4.8199532, 45.7414285" }, "geometry": { "type": "Point", "coordinates": [ 4.819953, 45.741428 ] } },
{ "type": "Feature", "properties": { "uuid": 1471, "id": 1234863225, "name": null, "amenity": "waste_basket", "bounds": "4.8173844, 45.7442588, 4.8173844, 45.7442588" }, "geometry": { "type": "Point", "coordinates": [ 4.817384, 45.744259 ] } },
{ "type": "Feature", "properties": { "uuid": 1472, "id": 1234863226, "name": null, "amenity": "bicycle_parking", "bounds": "4.8165865, 45.7442715, 4.8165865, 45.7442715" }, "geometry": { "type": "Point", "coordinates": [ 4.816586, 45.744272 ] } },
{ "type": "Feature", "properties": { "uuid": 1563, "id": 1286843788, "name": null, "amenity": "bicycle_parking", "bounds": "4.8260171, 45.7514651, 4.8260171, 45.7514651" }, "geometry": { "type": "Point", "coordinates": [ 4.826017, 45.751465 ] } },
{ "type": "Feature", "properties": { "uuid": 1601, "id": 1309043989, "name": null, "amenity": "bicycle_parking", "bounds": "4.8317259, 45.7616881, 4.8317259, 45.7616881" }, "geometry": { "type": "Point", "coordinates": [ 4.831726, 45.761688 ] } },
{ "type": "Feature", "properties": { "uuid": 1614, "id": 1313884281, "name": null, "amenity": "drinking_water", "bounds": "4.8314682, 45.7610414, 4.8314682, 45.7610414" }, "geometry": { "type": "Point", "coordinates": [ 4.831468, 45.761041 ] } },
{ "type": "Feature", "properties": { "uuid": 1615, "id": 1313884282, "name": null, "amenity": "drinking_water", "bounds": "4.8341428, 45.7611655, 4.8341428, 45.7611655" }, "geometry": { "type": "Point", "coordinates": [ 4.834143, 45.761165 ] } },
{ "type": "Feature", "properties": { "uuid": 1621, "id": 1316021630, "name": "Jérôme B. Fleuriste", "amenity": null, "bounds": "4.8354626, 45.7608619, 4.8354626, 45.7608619" }, "geometry": { "type": "Point", "coordinates": [ 4.835463, 45.760862 ] } },
{ "type": "Feature", "properties": { "uuid": 1622, "id": 1316021631, "name": null, "amenity": null, "bounds": "4.8339304, 45.7606286, 4.8339304, 45.7606286" }, "geometry": { "type": "Point", "coordinates": [ 4.83393, 45.760629 ] } },
{ "type": "Feature", "properties": { "uuid": 1638, "id": 1327158462, "name": null, "amenity": "bicycle_parking", "bounds": "4.8202504, 45.7405988, 4.8202504, 45.7405988" }, "geometry": { "type": "Point", "coordinates": [ 4.82025, 45.740599 ] } },
{ "type": "Feature", "properties": { "uuid": 1639, "id": 1327160470, "name": null, "amenity": "drinking_water", "bounds": "4.8158109, 45.7448858, 4.8158109, 45.7448858" }, "geometry": { "type": "Point", "coordinates": [ 4.815811, 45.744886 ] } },
{ "type": "Feature", "properties": { "uuid": 1660, "id": 1334815435, "name": null, "amenity": "bicycle_parking", "bounds": "4.83174, 45.76001, 4.83174, 45.76001" }, "geometry": { "type": "Point", "coordinates": [ 4.83174, 45.76001 ] } },
{ "type": "Feature", "properties": { "uuid": 1863, "id": 1385071397, "name": null, "amenity": "bicycle_parking", "bounds": "4.8222378, 45.7447832, 4.8222378, 45.7447832" }, "geometry": { "type": "Point", "coordinates": [ 4.822238, 45.744783 ] } },
{ "type": "Feature", "properties": { "uuid": 1888, "id": 1391026568, "name": "Kanopee", "amenity": null, "bounds": "4.8301137, 45.7547287, 4.8301137, 45.7547287" }, "geometry": { "type": "Point", "coordinates": [ 4.830114, 45.754729 ] } },
{ "type": "Feature", "properties": { "uuid": 1919, "id": 1425304547, "name": "Kaffee Berlin Cordeliers", "amenity": "restaurant", "bounds": "4.833125, 45.7628138, 4.833125, 45.7628138" }, "geometry": { "type": "Point", "coordinates": [ 4.833125, 45.762814 ] } },
{ "type": "Feature", "properties": { "uuid": 1920, "id": 1425488607, "name": "Fnac Bellecour", "amenity": null, "bounds": "4.834662, 45.7583166, 4.834662, 45.7583166" }, "geometry": { "type": "Point", "coordinates": [ 4.834662, 45.758317 ] } },
{ "type": "Feature", "properties": { "uuid": 1921, "id": 1425492583, "name": "Starbucks", "amenity": "cafe", "bounds": "4.8353877, 45.7595147, 4.8353877, 45.7595147" }, "geometry": { "type": "Point", "coordinates": [ 4.835388, 45.759515 ] } },
{ "type": "Feature", "properties": { "uuid": 1930, "id": 1425737879, "name": "Boulanger Lyon - Les Cordeliers", "amenity": null, "bounds": "4.8375564, 45.7633887, 4.8375564, 45.7633887" }, "geometry": { "type": "Point", "coordinates": [ 4.837556, 45.763389 ] } },
{ "type": "Feature", "properties": { "uuid": 1931, "id": 1425742644, "name": "Le Petit Train Bleu", "amenity": null, "bounds": "4.8325116, 45.7544731, 4.8325116, 45.7544731" }, "geometry": { "type": "Point", "coordinates": [ 4.832512, 45.754473 ] } },
{ "type": "Feature", "properties": { "uuid": 1932, "id": 1425742731, "name": "Rue de la Barre", "amenity": "taxi", "bounds": "4.8344951, 45.7579302, 4.8344951, 45.7579302" }, "geometry": { "type": "Point", "coordinates": [ 4.834495, 45.75793 ] } },
{ "type": "Feature", "properties": { "uuid": 1935, "id": 1425748465, "name": null, "amenity": "fountain", "bounds": "4.8335038, 45.7532794, 4.8335038, 45.7532794" }, "geometry": { "type": "Point", "coordinates": [ 4.833504, 45.753279 ] } },
{ "type": "Feature", "properties": { "uuid": 1936, "id": 1425750352, "name": null, "amenity": "fountain", "bounds": "4.8356531, 45.7560198, 4.8356531, 45.7560198" }, "geometry": { "type": "Point", "coordinates": [ 4.835653, 45.75602 ] } },
{ "type": "Feature", "properties": { "uuid": 1937, "id": 1425757077, "name": "Les Incorruptibles", "amenity": null, "bounds": "4.8325086, 45.7599867, 4.8325086, 45.7599867" }, "geometry": { "type": "Point", "coordinates": [ 4.832509, 45.759987 ] } },
{ "type": "Feature", "properties": { "uuid": 1941, "id": 1425777093, "name": null, "amenity": "fountain", "bounds": "4.8275154, 45.7556436, 4.8275154, 45.7556436" }, "geometry": { "type": "Point", "coordinates": [ 4.827515, 45.755644 ] } },
{ "type": "Feature", "properties": { "uuid": 1942, "id": 1425777307, "name": "Café Comptoir Abel", "amenity": "restaurant", "bounds": "4.8259121, 45.7541351, 4.8259121, 45.7541351" }, "geometry": { "type": "Point", "coordinates": [ 4.825912, 45.754135 ] } },
{ "type": "Feature", "properties": { "uuid": 1965, "id": 1434183851, "name": null, "amenity": "bicycle_parking", "bounds": "4.81484, 45.7397824, 4.81484, 45.7397824" }, "geometry": { "type": "Point", "coordinates": [ 4.81484, 45.739782 ] } },
{ "type": "Feature", "properties": { "uuid": 1966, "id": 1434183852, "name": "Confluence Hôtel de Région", "amenity": "bicycle_rental", "bounds": "4.8191569, 45.7405473, 4.8191569, 45.7405473" }, "geometry": { "type": "Point", "coordinates": [ 4.819157, 45.740547 ] } },
{ "type": "Feature", "properties": { "uuid": 1967, "id": 1435701939, "name": null, "amenity": "bicycle_parking", "bounds": "4.8241035, 45.743932, 4.8241035, 45.743932" }, "geometry": { "type": "Point", "coordinates": [ 4.824103, 45.743932 ] } },
{ "type": "Feature", "properties": { "uuid": 1991, "id": 1438273730, "name": null, "amenity": "bicycle_parking", "bounds": "4.8266035, 45.7459236, 4.8266035, 45.7459236" }, "geometry": { "type": "Point", "coordinates": [ 4.826604, 45.745924 ] } },
{ "type": "Feature", "properties": { "uuid": 1992, "id": 1438273731, "name": null, "amenity": "bicycle_parking", "bounds": "4.8282844, 45.7479108, 4.8282844, 45.7479108" }, "geometry": { "type": "Point", "coordinates": [ 4.828284, 45.747911 ] } },
{ "type": "Feature", "properties": { "uuid": 2037, "id": 1493148155, "name": null, "amenity": "bicycle_parking", "bounds": "4.8350223, 45.7601932, 4.8350223, 45.7601932" }, "geometry": { "type": "Point", "coordinates": [ 4.835022, 45.760193 ] } },
{ "type": "Feature", "properties": { "uuid": 2038, "id": 1493148156, "name": null, "amenity": "bicycle_parking", "bounds": "4.8360378, 45.7629954, 4.8360378, 45.7629954" }, "geometry": { "type": "Point", "coordinates": [ 4.836038, 45.762995 ] } },
{ "type": "Feature", "properties": { "uuid": 2043, "id": 1501790468, "name": null, "amenity": "bicycle_parking", "bounds": "4.8350075, 45.7596476, 4.8350075, 45.7596476" }, "geometry": { "type": "Point", "coordinates": [ 4.835007, 45.759648 ] } },
{ "type": "Feature", "properties": { "uuid": 2044, "id": 1501988816, "name": null, "amenity": "bicycle_parking", "bounds": "4.8180827, 45.739873, 4.8180827, 45.739873" }, "geometry": { "type": "Point", "coordinates": [ 4.818083, 45.739873 ] } },
{ "type": "Feature", "properties": { "uuid": 2051, "id": 1510231318, "name": null, "amenity": "bicycle_parking", "bounds": "4.8334459, 45.7562048, 4.8334459, 45.7562048" }, "geometry": { "type": "Point", "coordinates": [ 4.833446, 45.756205 ] } },
{ "type": "Feature", "properties": { "uuid": 2052, "id": 1510231338, "name": null, "amenity": "bicycle_parking", "bounds": "4.8337413, 45.7567093, 4.8337413, 45.7567093" }, "geometry": { "type": "Point", "coordinates": [ 4.833741, 45.756709 ] } },
{ "type": "Feature", "properties": { "uuid": 2074, "id": 1533421987, "name": null, "amenity": "bicycle_parking", "bounds": "4.8266626, 45.754697, 4.8266626, 45.754697" }, "geometry": { "type": "Point", "coordinates": [ 4.826663, 45.754697 ] } },
{ "type": "Feature", "properties": { "uuid": 2075, "id": 1533421995, "name": null, "amenity": "bicycle_parking", "bounds": "4.8314185, 45.752517, 4.8314185, 45.752517" }, "geometry": { "type": "Point", "coordinates": [ 4.831418, 45.752517 ] } },
{ "type": "Feature", "properties": { "uuid": 2076, "id": 1533422000, "name": null, "amenity": "bicycle_parking", "bounds": "4.830239, 45.7499559, 4.830239, 45.7499559" }, "geometry": { "type": "Point", "coordinates": [ 4.830239, 45.749956 ] } },
{ "type": "Feature", "properties": { "uuid": 2077, "id": 1533422007, "name": null, "amenity": "bicycle_parking", "bounds": "4.8306765, 45.751092, 4.8306765, 45.751092" }, "geometry": { "type": "Point", "coordinates": [ 4.830677, 45.751092 ] } },
{ "type": "Feature", "properties": { "uuid": 2088, "id": 1550875427, "name": "Stocks Bellecour", "amenity": null, "bounds": "4.8318762, 45.7566346, 4.8318762, 45.7566346" }, "geometry": { "type": "Point", "coordinates": [ 4.831876, 45.756635 ] } },
{ "type": "Feature", "properties": { "uuid": 2093, "id": 1564814411, "name": null, "amenity": "bicycle_parking", "bounds": "4.8332219, 45.7582901, 4.8332219, 45.7582901" }, "geometry": { "type": "Point", "coordinates": [ 4.833222, 45.75829 ] } },
{ "type": "Feature", "properties": { "uuid": 2107, "id": 1582808434, "name": null, "amenity": "bicycle_parking", "bounds": "4.824714, 45.7464591, 4.824714, 45.7464591" }, "geometry": { "type": "Point", "coordinates": [ 4.824714, 45.746459 ] } },
{ "type": "Feature", "properties": { "uuid": 2111, "id": 1589522862, "name": "Biocoop Lyon Bellecour", "amenity": null, "bounds": "4.8280125, 45.7567167, 4.8280125, 45.7567167" }, "geometry": { "type": "Point", "coordinates": [ 4.828012, 45.756717 ] } },
{ "type": "Feature", "properties": { "uuid": 2113, "id": 1594857907, "name": "Rituals", "amenity": null, "bounds": "4.834445, 45.7585614, 4.834445, 45.7585614" }, "geometry": { "type": "Point", "coordinates": [ 4.834445, 45.758561 ] } },
{ "type": "Feature", "properties": { "uuid": 2125, "id": 1594942687, "name": "Loggia", "amenity": "restaurant", "bounds": "4.8310447, 45.7543718, 4.8310447, 45.7543718" }, "geometry": { "type": "Point", "coordinates": [ 4.831045, 45.754372 ] } },
{ "type": "Feature", "properties": { "uuid": 2126, "id": 1594943207, "name": "L'échappée Belle", "amenity": null, "bounds": "4.8308301, 45.7544541, 4.8308301, 45.7544541" }, "geometry": { "type": "Point", "coordinates": [ 4.83083, 45.754454 ] } },
{ "type": "Feature", "properties": { "uuid": 2127, "id": 1597889974, "name": "Carrefour City", "amenity": null, "bounds": "4.8294934, 45.7530921, 4.8294934, 45.7530921" }, "geometry": { "type": "Point", "coordinates": [ 4.829493, 45.753092 ] } },
{ "type": "Feature", "properties": { "uuid": 2128, "id": 1597890559, "name": "Place Ampère", "amenity": "post_office", "bounds": "4.8285457, 45.7534058, 4.8285457, 45.7534058" }, "geometry": { "type": "Point", "coordinates": [ 4.828546, 45.753406 ] } },
{ "type": "Feature", "properties": { "uuid": 2157, "id": 1603588164, "name": "Théâtre des Marronniers", "amenity": "theatre", "bounds": "4.8348148, 45.7571453, 4.8348148, 45.7571453" }, "geometry": { "type": "Point", "coordinates": [ 4.834815, 45.757145 ] } },
{ "type": "Feature", "properties": { "uuid": 2159, "id": 1606672731, "name": "Aux Fleurs du Sud", "amenity": null, "bounds": "4.8324823, 45.7570816, 4.8324823, 45.7570816" }, "geometry": { "type": "Point", "coordinates": [ 4.832482, 45.757082 ] } },
{ "type": "Feature", "properties": { "uuid": 2160, "id": 1606942594, "name": "Justine et Salomé", "amenity": null, "bounds": "4.8315597, 45.7557492, 4.8315597, 45.7557492" }, "geometry": { "type": "Point", "coordinates": [ 4.83156, 45.755749 ] } },
{ "type": "Feature", "properties": { "uuid": 2183, "id": 1676006830, "name": "Confluence Les Docks", "amenity": "bicycle_rental", "bounds": "4.8150004, 45.7396361, 4.8150004, 45.7396361" }, "geometry": { "type": "Point", "coordinates": [ 4.815, 45.739636 ] } },
{ "type": "Feature", "properties": { "uuid": 2188, "id": 1682836804, "name": null, "amenity": "bicycle_parking", "bounds": "4.83746, 45.76167, 4.83746, 45.76167" }, "geometry": { "type": "Point", "coordinates": [ 4.83746, 45.76167 ] } },
{ "type": "Feature", "properties": { "uuid": 2199, "id": 1694663588, "name": "CIC Lyon Bellecour", "amenity": "bank", "bounds": "4.8312936, 45.7567467, 4.8312936, 45.7567467" }, "geometry": { "type": "Point", "coordinates": [ 4.831294, 45.756747 ] } },
{ "type": "Feature", "properties": { "uuid": 2231, "id": 1720409176, "name": "Société Générale", "amenity": "bank", "bounds": "4.8224529, 45.7449545, 4.8224529, 45.7449545" }, "geometry": { "type": "Point", "coordinates": [ 4.822453, 45.744954 ] } },
{ "type": "Feature", "properties": { "uuid": 2232, "id": 1720409179, "name": "CIC", "amenity": "bank", "bounds": "4.8223832, 45.7448684, 4.8223832, 45.7448684" }, "geometry": { "type": "Point", "coordinates": [ 4.822383, 45.744868 ] } },
{ "type": "Feature", "properties": { "uuid": 2233, "id": 1720433982, "name": "Marché U", "amenity": null, "bounds": "4.830691, 45.751385, 4.830691, 45.751385" }, "geometry": { "type": "Point", "coordinates": [ 4.830691, 45.751385 ] } },
{ "type": "Feature", "properties": { "uuid": 2235, "id": 1721722756, "name": null, "amenity": "bicycle_parking", "bounds": "4.8328464, 45.7602308, 4.8328464, 45.7602308" }, "geometry": { "type": "Point", "coordinates": [ 4.832846, 45.760231 ] } },
{ "type": "Feature", "properties": { "uuid": 2236, "id": 1722048772, "name": "UGC Ciné Cité Confluence", "amenity": "cinema", "bounds": "4.8181777, 45.7404586, 4.8181777, 45.7404586" }, "geometry": { "type": "Point", "coordinates": [ 4.818178, 45.740459 ] } },
{ "type": "Feature", "properties": { "uuid": 2266, "id": 1754665083, "name": null, "amenity": "post_box", "bounds": "4.8250617, 45.7477717, 4.8250617, 45.7477717" }, "geometry": { "type": "Point", "coordinates": [ 4.825062, 45.747772 ] } },
{ "type": "Feature", "properties": { "uuid": 2279, "id": 1777579784, "name": "Decitre", "amenity": null, "bounds": "4.8298327, 45.7570165, 4.8298327, 45.7570165" }, "geometry": { "type": "Point", "coordinates": [ 4.829833, 45.757016 ] } },
{ "type": "Feature", "properties": { "uuid": 2280, "id": 1777581753, "name": null, "amenity": "bench", "bounds": "4.8354571, 45.760601, 4.8354571, 45.760601" }, "geometry": { "type": "Point", "coordinates": [ 4.835457, 45.760601 ] } },
{ "type": "Feature", "properties": { "uuid": 2281, "id": 1777581754, "name": null, "amenity": "bench", "bounds": "4.8354477, 45.7603606, 4.8354477, 45.7603606" }, "geometry": { "type": "Point", "coordinates": [ 4.835448, 45.760361 ] } },
{ "type": "Feature", "properties": { "uuid": 2282, "id": 1777581755, "name": null, "amenity": "bench", "bounds": "4.8358242, 45.7604358, 4.8358242, 45.7604358" }, "geometry": { "type": "Point", "coordinates": [ 4.835824, 45.760436 ] } },
{ "type": "Feature", "properties": { "uuid": 2283, "id": 1777581758, "name": null, "amenity": "bench", "bounds": "4.8358259, 45.7605907, 4.8358259, 45.7605907" }, "geometry": { "type": "Point", "coordinates": [ 4.835826, 45.760591 ] } },
{ "type": "Feature", "properties": { "uuid": 2284, "id": 1777581759, "name": null, "amenity": "bench", "bounds": "4.8354533, 45.7605048, 4.8354533, 45.7605048" }, "geometry": { "type": "Point", "coordinates": [ 4.835453, 45.760505 ] } },
{ "type": "Feature", "properties": { "uuid": 2285, "id": 1777581763, "name": null, "amenity": "bench", "bounds": "4.8354552, 45.7605529, 4.8354552, 45.7605529" }, "geometry": { "type": "Point", "coordinates": [ 4.835455, 45.760553 ] } },
{ "type": "Feature", "properties": { "uuid": 2286, "id": 1777581770, "name": null, "amenity": "bench", "bounds": "4.8358231, 45.7603326, 4.8358231, 45.7603326" }, "geometry": { "type": "Point", "coordinates": [ 4.835823, 45.760333 ] } },
{ "type": "Feature", "properties": { "uuid": 2287, "id": 1777581771, "name": null, "amenity": "bench", "bounds": "4.8354496, 45.7604087, 4.8354496, 45.7604087" }, "geometry": { "type": "Point", "coordinates": [ 4.83545, 45.760409 ] } },
{ "type": "Feature", "properties": { "uuid": 2288, "id": 1777581772, "name": null, "amenity": "bench", "bounds": "4.8358253, 45.7605391, 4.8358253, 45.7605391" }, "geometry": { "type": "Point", "coordinates": [ 4.835825, 45.760539 ] } },
{ "type": "Feature", "properties": { "uuid": 2289, "id": 1777581774, "name": null, "amenity": "bench", "bounds": "4.8358248, 45.7604875, 4.8358248, 45.7604875" }, "geometry": { "type": "Point", "coordinates": [ 4.835825, 45.760488 ] } },
{ "type": "Feature", "properties": { "uuid": 2290, "id": 1777581775, "name": null, "amenity": "bench", "bounds": "4.8354515, 45.7604568, 4.8354515, 45.7604568" }, "geometry": { "type": "Point", "coordinates": [ 4.835451, 45.760457 ] } },
{ "type": "Feature", "properties": { "uuid": 2291, "id": 1777581776, "name": null, "amenity": "bench", "bounds": "4.8358237, 45.7603842, 4.8358237, 45.7603842" }, "geometry": { "type": "Point", "coordinates": [ 4.835824, 45.760384 ] } },
{ "type": "Feature", "properties": { "uuid": 2308, "id": 1789302091, "name": "Pignol", "amenity": null, "bounds": "4.8326136, 45.7585844, 4.8326136, 45.7585844" }, "geometry": { "type": "Point", "coordinates": [ 4.832614, 45.758584 ] } },
{ "type": "Feature", "properties": { "uuid": 2309, "id": 1790649984, "name": "LCL", "amenity": "bank", "bounds": "4.8300407, 45.7546026, 4.8300407, 45.7546026" }, "geometry": { "type": "Point", "coordinates": [ 4.830041, 45.754603 ] } },
{ "type": "Feature", "properties": { "uuid": 2310, "id": 1790660170, "name": "Fontaine de la Place Ampère", "amenity": "fountain", "bounds": "4.8288458, 45.7531533, 4.8288458, 45.7531533" }, "geometry": { "type": "Point", "coordinates": [ 4.828846, 45.753153 ] } },
{ "type": "Feature", "properties": { "uuid": 2311, "id": 1790662560, "name": "Caisse d'Épargne", "amenity": "bank", "bounds": "4.8288573, 45.7533881, 4.8288573, 45.7533881" }, "geometry": { "type": "Point", "coordinates": [ 4.828857, 45.753388 ] } },
{ "type": "Feature", "properties": { "uuid": 2312, "id": 1790669449, "name": "McDonald's", "amenity": "fast_food", "bounds": "4.82891, 45.7528863, 4.82891, 45.7528863" }, "geometry": { "type": "Point", "coordinates": [ 4.82891, 45.752886 ] } },
{ "type": "Feature", "properties": { "uuid": 2313, "id": 1790671072, "name": null, "amenity": "post_box", "bounds": "4.8302714, 45.7546822, 4.8302714, 45.7546822" }, "geometry": { "type": "Point", "coordinates": [ 4.830271, 45.754682 ] } },
{ "type": "Feature", "properties": { "uuid": 2314, "id": 1790672081, "name": "BNP Paribas", "amenity": "bank", "bounds": "4.8297591, 45.7537615, 4.8297591, 45.7537615" }, "geometry": { "type": "Point", "coordinates": [ 4.829759, 45.753762 ] } },
{ "type": "Feature", "properties": { "uuid": 2315, "id": 1790677737, "name": "Boulangerie artisanale Saint-Marc", "amenity": null, "bounds": "4.8295472, 45.7549321, 4.8295472, 45.7549321" }, "geometry": { "type": "Point", "coordinates": [ 4.829547, 45.754932 ] } },
{ "type": "Feature", "properties": { "uuid": 2316, "id": 1790677738, "name": "Café des Antiquaires", "amenity": "bar", "bounds": "4.830439, 45.7535968, 4.830439, 45.7535968" }, "geometry": { "type": "Point", "coordinates": [ 4.830439, 45.753597 ] } },
{ "type": "Feature", "properties": { "uuid": 2317, "id": 1790677954, "name": "Le Petit Marché Sainte-Hélène", "amenity": null, "bounds": "4.8304809, 45.7544306, 4.8304809, 45.7544306" }, "geometry": { "type": "Point", "coordinates": [ 4.830481, 45.754431 ] } },
{ "type": "Feature", "properties": { "uuid": 2318, "id": 1790677986, "name": null, "amenity": "bar", "bounds": "4.8305986, 45.7543819, 4.8305986, 45.7543819" }, "geometry": { "type": "Point", "coordinates": [ 4.830599, 45.754382 ] } },
{ "type": "Feature", "properties": { "uuid": 2319, "id": 1790679867, "name": "Jules", "amenity": null, "bounds": "4.8303679, 45.7547824, 4.8303679, 45.7547824" }, "geometry": { "type": "Point", "coordinates": [ 4.830368, 45.754782 ] } },
{ "type": "Feature", "properties": { "uuid": 2320, "id": 1790685853, "name": "MadeInFish", "amenity": "fast_food", "bounds": "4.8301695, 45.754453, 4.8301695, 45.754453" }, "geometry": { "type": "Point", "coordinates": [ 4.83017, 45.754453 ] } },
{ "type": "Feature", "properties": { "uuid": 2321, "id": 1790686107, "name": "Pharmacie Khalatbari", "amenity": "pharmacy", "bounds": "4.8293313, 45.7535143, 4.8293313, 45.7535143" }, "geometry": { "type": "Point", "coordinates": [ 4.829331, 45.753514 ] } },
{ "type": "Feature", "properties": { "uuid": 2322, "id": 1790686156, "name": "Brioche Dorée", "amenity": "fast_food", "bounds": "4.8294173, 45.7532458, 4.8294173, 45.7532458" }, "geometry": { "type": "Point", "coordinates": [ 4.829417, 45.753246 ] } },
{ "type": "Feature", "properties": { "uuid": 2329, "id": 1795443392, "name": null, "amenity": "bicycle_parking", "bounds": "4.8193136, 45.7393513, 4.8193136, 45.7393513" }, "geometry": { "type": "Point", "coordinates": [ 4.819314, 45.739351 ] } },
{ "type": "Feature", "properties": { "uuid": 2330, "id": 1795443393, "name": null, "amenity": "bicycle_parking", "bounds": "4.8200105, 45.7400592, 4.8200105, 45.7400592" }, "geometry": { "type": "Point", "coordinates": [ 4.820011, 45.740059 ] } },
{ "type": "Feature", "properties": { "uuid": 2389, "id": 1851239888, "name": "Joffre \/ Vaubecour", "amenity": "bicycle_rental", "bounds": "4.824684, 45.751799, 4.824684, 45.751799" }, "geometry": { "type": "Point", "coordinates": [ 4.824684, 45.751799 ] } },
{ "type": "Feature", "properties": { "uuid": 2407, "id": 1851240018, "name": "Sala \/ Rue de Plat", "amenity": "bicycle_rental", "bounds": "4.828371, 45.756813, 4.828371, 45.756813" }, "geometry": { "type": "Point", "coordinates": [ 4.828371, 45.756813 ] } },
{ "type": "Feature", "properties": { "uuid": 2464, "id": 1863934463, "name": null, "amenity": "bicycle_parking", "bounds": "4.8227189, 45.7460462, 4.8227189, 45.7460462" }, "geometry": { "type": "Point", "coordinates": [ 4.822719, 45.746046 ] } },
{ "type": "Feature", "properties": { "uuid": 2476, "id": 1868899993, "name": "King Arthur", "amenity": "pub", "bounds": "4.8322627, 45.7616364, 4.8322627, 45.7616364" }, "geometry": { "type": "Point", "coordinates": [ 4.832263, 45.761636 ] } },
{ "type": "Feature", "properties": { "uuid": 2491, "id": 1871907366, "name": "L'Institution", "amenity": "restaurant", "bounds": "4.8355951, 45.7632348, 4.8355951, 45.7632348" }, "geometry": { "type": "Point", "coordinates": [ 4.835595, 45.763235 ] } },
{ "type": "Feature", "properties": { "uuid": 2513, "id": 1883842605, "name": "Eden Rock Café", "amenity": "pub", "bounds": "4.8328621, 45.762011, 4.8328621, 45.762011" }, "geometry": { "type": "Point", "coordinates": [ 4.832862, 45.762011 ] } },
{ "type": "Feature", "properties": { "uuid": 2514, "id": 1883877948, "name": "Le Comptoir Irlandais", "amenity": null, "bounds": "4.8316215, 45.7614212, 4.8316215, 45.7614212" }, "geometry": { "type": "Point", "coordinates": [ 4.831621, 45.761421 ] } },
{ "type": "Feature", "properties": { "uuid": 2518, "id": 1896193341, "name": "Uniqlo", "amenity": null, "bounds": "4.8368473, 45.761208, 4.8368473, 45.761208" }, "geometry": { "type": "Point", "coordinates": [ 4.836847, 45.761208 ] } },
{ "type": "Feature", "properties": { "uuid": 2523, "id": 1912759622, "name": null, "amenity": "bicycle_parking", "bounds": "4.8176086, 45.7407045, 4.8176086, 45.7407045" }, "geometry": { "type": "Point", "coordinates": [ 4.817609, 45.740704 ] } },
{ "type": "Feature", "properties": { "uuid": 2524, "id": 1913670247, "name": null, "amenity": "bicycle_parking", "bounds": "4.8188848, 45.7406195, 4.8188848, 45.7406195" }, "geometry": { "type": "Point", "coordinates": [ 4.818885, 45.74062 ] } },
{ "type": "Feature", "properties": { "uuid": 2525, "id": 1921536998, "name": null, "amenity": "bicycle_parking", "bounds": "4.8321208, 45.751573, 4.8321208, 45.751573" }, "geometry": { "type": "Point", "coordinates": [ 4.832121, 45.751573 ] } },
{ "type": "Feature", "properties": { "uuid": 2526, "id": 1921536999, "name": null, "amenity": "bicycle_parking", "bounds": "4.8308187, 45.751937, 4.8308187, 45.751937" }, "geometry": { "type": "Point", "coordinates": [ 4.830819, 45.751937 ] } },
{ "type": "Feature", "properties": { "uuid": 2528, "id": 1930972558, "name": null, "amenity": "bicycle_parking", "bounds": "4.8314141, 45.7550426, 4.8314141, 45.7550426" }, "geometry": { "type": "Point", "coordinates": [ 4.831414, 45.755043 ] } },
{ "type": "Feature", "properties": { "uuid": 2553, "id": 1964902763, "name": null, "amenity": "bicycle_parking", "bounds": "4.8370014, 45.7616208, 4.8370014, 45.7616208" }, "geometry": { "type": "Point", "coordinates": [ 4.837001, 45.761621 ] } },
{ "type": "Feature", "properties": { "uuid": 2556, "id": 1969383766, "name": null, "amenity": "bicycle_parking", "bounds": "4.8333303, 45.7609952, 4.8333303, 45.7609952" }, "geometry": { "type": "Point", "coordinates": [ 4.83333, 45.760995 ] } },
{ "type": "Feature", "properties": { "uuid": 2557, "id": 1969383767, "name": null, "amenity": "recycling", "bounds": "4.8333397, 45.7610578, 4.8333397, 45.7610578" }, "geometry": { "type": "Point", "coordinates": [ 4.83334, 45.761058 ] } },
{ "type": "Feature", "properties": { "uuid": 2558, "id": 1969383768, "name": null, "amenity": "bicycle_parking", "bounds": "4.833333, 45.7610945, 4.833333, 45.7610945" }, "geometry": { "type": "Point", "coordinates": [ 4.833333, 45.761094 ] } },
{ "type": "Feature", "properties": { "uuid": 2591, "id": 1978337023, "name": "Two Amigos", "amenity": "bar", "bounds": "4.8283795, 45.7529185, 4.8283795, 45.7529185" }, "geometry": { "type": "Point", "coordinates": [ 4.828379, 45.752918 ] } },
{ "type": "Feature", "properties": { "uuid": 2704, "id": 2031083538, "name": "Groupe scolaire Lamartine", "amenity": "school", "bounds": "4.8324795, 45.7602348, 4.8324795, 45.7602348" }, "geometry": { "type": "Point", "coordinates": [ 4.832479, 45.760235 ] } },
{ "type": "Feature", "properties": { "uuid": 2782, "id": 2087358673, "name": null, "amenity": "post_box", "bounds": "4.8189037, 45.7435054, 4.8189037, 45.7435054" }, "geometry": { "type": "Point", "coordinates": [ 4.818904, 45.743505 ] } },
{ "type": "Feature", "properties": { "uuid": 2783, "id": 2088207205, "name": "Intermezzo", "amenity": "restaurant", "bounds": "4.8158284, 45.7432051, 4.8158284, 45.7432051" }, "geometry": { "type": "Point", "coordinates": [ 4.815828, 45.743205 ] } },
{ "type": "Feature", "properties": { "uuid": 2784, "id": 2088207206, "name": "LCL", "amenity": "bank", "bounds": "4.8161167, 45.7430804, 4.8161167, 45.7430804" }, "geometry": { "type": "Point", "coordinates": [ 4.816117, 45.74308 ] } },
{ "type": "Feature", "properties": { "uuid": 2785, "id": 2088224388, "name": "Le St Trop", "amenity": "bar", "bounds": "4.8165531, 45.7429028, 4.8165531, 45.7429028" }, "geometry": { "type": "Point", "coordinates": [ 4.816553, 45.742903 ] } },
{ "type": "Feature", "properties": { "uuid": 2786, "id": 2088224389, "name": "Romanza", "amenity": "restaurant", "bounds": "4.8166738, 45.7428632, 4.8166738, 45.7428632" }, "geometry": { "type": "Point", "coordinates": [ 4.816674, 45.742863 ] } },
{ "type": "Feature", "properties": { "uuid": 2814, "id": 2100925215, "name": "As It Is", "amenity": null, "bounds": "4.8345883, 45.7626784, 4.8345883, 45.7626784" }, "geometry": { "type": "Point", "coordinates": [ 4.834588, 45.762678 ] } },
{ "type": "Feature", "properties": { "uuid": 2816, "id": 2100936060, "name": "Jules", "amenity": null, "bounds": "4.8359523, 45.762893, 4.8359523, 45.762893" }, "geometry": { "type": "Point", "coordinates": [ 4.835952, 45.762893 ] } },
{ "type": "Feature", "properties": { "uuid": 2830, "id": 2104763939, "name": null, "amenity": "atm", "bounds": "4.8340298, 45.7559855, 4.8340298, 45.7559855" }, "geometry": { "type": "Point", "coordinates": [ 4.83403, 45.755986 ] } },
{ "type": "Feature", "properties": { "uuid": 2840, "id": 2108038887, "name": "Images Photo", "amenity": null, "bounds": "4.834123, 45.757442, 4.834123, 45.757442" }, "geometry": { "type": "Point", "coordinates": [ 4.834123, 45.757442 ] } },
{ "type": "Feature", "properties": { "uuid": 2841, "id": 2108038890, "name": null, "amenity": "bench", "bounds": "4.8354357, 45.7562327, 4.8354357, 45.7562327" }, "geometry": { "type": "Point", "coordinates": [ 4.835436, 45.756233 ] } },
{ "type": "Feature", "properties": { "uuid": 2842, "id": 2108038891, "name": null, "amenity": "bench", "bounds": "4.8353631, 45.7562547, 4.8353631, 45.7562547" }, "geometry": { "type": "Point", "coordinates": [ 4.835363, 45.756255 ] } },
{ "type": "Feature", "properties": { "uuid": 2843, "id": 2108038892, "name": null, "amenity": "bench", "bounds": "4.8352939, 45.7562734, 4.8352939, 45.7562734" }, "geometry": { "type": "Point", "coordinates": [ 4.835294, 45.756273 ] } },
{ "type": "Feature", "properties": { "uuid": 2844, "id": 2108038893, "name": null, "amenity": "bench", "bounds": "4.8352234, 45.7562943, 4.8352234, 45.7562943" }, "geometry": { "type": "Point", "coordinates": [ 4.835223, 45.756294 ] } },
{ "type": "Feature", "properties": { "uuid": 2845, "id": 2108038894, "name": null, "amenity": "bench", "bounds": "4.8351508, 45.756315, 4.8351508, 45.756315" }, "geometry": { "type": "Point", "coordinates": [ 4.835151, 45.756315 ] } },
{ "type": "Feature", "properties": { "uuid": 2846, "id": 2108038895, "name": null, "amenity": "bench", "bounds": "4.8350846, 45.7563336, 4.8350846, 45.7563336" }, "geometry": { "type": "Point", "coordinates": [ 4.835085, 45.756334 ] } },
{ "type": "Feature", "properties": { "uuid": 2847, "id": 2108038896, "name": null, "amenity": "bench", "bounds": "4.8350208, 45.7563516, 4.8350208, 45.7563516" }, "geometry": { "type": "Point", "coordinates": [ 4.835021, 45.756352 ] } },
{ "type": "Feature", "properties": { "uuid": 2848, "id": 2108038897, "name": null, "amenity": "bench", "bounds": "4.8349468, 45.7563732, 4.8349468, 45.7563732" }, "geometry": { "type": "Point", "coordinates": [ 4.834947, 45.756373 ] } },
{ "type": "Feature", "properties": { "uuid": 2849, "id": 2108038898, "name": null, "amenity": "bench", "bounds": "4.8348636, 45.7563965, 4.8348636, 45.7563965" }, "geometry": { "type": "Point", "coordinates": [ 4.834864, 45.756397 ] } },
{ "type": "Feature", "properties": { "uuid": 2850, "id": 2108038899, "name": null, "amenity": "bench", "bounds": "4.8347878, 45.7564189, 4.8347878, 45.7564189" }, "geometry": { "type": "Point", "coordinates": [ 4.834788, 45.756419 ] } },
{ "type": "Feature", "properties": { "uuid": 2851, "id": 2108038900, "name": null, "amenity": "bench", "bounds": "4.8347229, 45.7564372, 4.8347229, 45.7564372" }, "geometry": { "type": "Point", "coordinates": [ 4.834723, 45.756437 ] } },
{ "type": "Feature", "properties": { "uuid": 2852, "id": 2108038901, "name": null, "amenity": "bench", "bounds": "4.8346653, 45.7564534, 4.8346653, 45.7564534" }, "geometry": { "type": "Point", "coordinates": [ 4.834665, 45.756453 ] } },
{ "type": "Feature", "properties": { "uuid": 2853, "id": 2108038902, "name": null, "amenity": "bench", "bounds": "4.8345729, 45.7564798, 4.8345729, 45.7564798" }, "geometry": { "type": "Point", "coordinates": [ 4.834573, 45.75648 ] } },
{ "type": "Feature", "properties": { "uuid": 2854, "id": 2108038903, "name": null, "amenity": "bench", "bounds": "4.8342886, 45.7565302, 4.8342886, 45.7565302" }, "geometry": { "type": "Point", "coordinates": [ 4.834289, 45.75653 ] } },
{ "type": "Feature", "properties": { "uuid": 2855, "id": 2108038904, "name": null, "amenity": "bench", "bounds": "4.8342103, 45.756552, 4.8342103, 45.756552" }, "geometry": { "type": "Point", "coordinates": [ 4.83421, 45.756552 ] } },
{ "type": "Feature", "properties": { "uuid": 2856, "id": 2108038905, "name": null, "amenity": "bench", "bounds": "4.8341335, 45.7565735, 4.8341335, 45.7565735" }, "geometry": { "type": "Point", "coordinates": [ 4.834134, 45.756574 ] } },
{ "type": "Feature", "properties": { "uuid": 2857, "id": 2108038906, "name": null, "amenity": "bench", "bounds": "4.8340654, 45.7565925, 4.8340654, 45.7565925" }, "geometry": { "type": "Point", "coordinates": [ 4.834065, 45.756592 ] } },
{ "type": "Feature", "properties": { "uuid": 2858, "id": 2108038907, "name": null, "amenity": "bench", "bounds": "4.8339893, 45.7566137, 4.8339893, 45.7566137" }, "geometry": { "type": "Point", "coordinates": [ 4.833989, 45.756614 ] } },
{ "type": "Feature", "properties": { "uuid": 2859, "id": 2108038908, "name": null, "amenity": "bench", "bounds": "4.8339122, 45.7566352, 4.8339122, 45.7566352" }, "geometry": { "type": "Point", "coordinates": [ 4.833912, 45.756635 ] } },
{ "type": "Feature", "properties": { "uuid": 2860, "id": 2108038909, "name": "1 2 3", "amenity": null, "bounds": "4.8342403, 45.7576232, 4.8342403, 45.7576232" }, "geometry": { "type": "Point", "coordinates": [ 4.83424, 45.757623 ] } },
{ "type": "Feature", "properties": { "uuid": 2902, "id": 2113293978, "name": null, "amenity": "post_box", "bounds": "4.8338434, 45.7560351, 4.8338434, 45.7560351" }, "geometry": { "type": "Point", "coordinates": [ 4.833843, 45.756035 ] } },
{ "type": "Feature", "properties": { "uuid": 2939, "id": 2135297280, "name": "Shalimar", "amenity": "restaurant", "bounds": "4.8319736, 45.7509835, 4.8319736, 45.7509835" }, "geometry": { "type": "Point", "coordinates": [ 4.831974, 45.750983 ] } },
{ "type": "Feature", "properties": { "uuid": 2944, "id": 2159433517, "name": "H&M", "amenity": null, "bounds": "4.8359888, 45.7630871, 4.8359888, 45.7630871" }, "geometry": { "type": "Point", "coordinates": [ 4.835989, 45.763087 ] } },
{ "type": "Feature", "properties": { "uuid": 2946, "id": 2159550290, "name": "Jeux Descartes", "amenity": null, "bounds": "4.8295821, 45.7532006, 4.8295821, 45.7532006" }, "geometry": { "type": "Point", "coordinates": [ 4.829582, 45.753201 ] } },
{ "type": "Feature", "properties": { "uuid": 2947, "id": 2159550291, "name": "Micromania", "amenity": null, "bounds": "4.8311811, 45.7560374, 4.8311811, 45.7560374" }, "geometry": { "type": "Point", "coordinates": [ 4.831181, 45.756037 ] } },
{ "type": "Feature", "properties": { "uuid": 2948, "id": 2159550292, "name": "Minelli", "amenity": null, "bounds": "4.8292166, 45.7533036, 4.8292166, 45.7533036" }, "geometry": { "type": "Point", "coordinates": [ 4.829217, 45.753304 ] } },
{ "type": "Feature", "properties": { "uuid": 2949, "id": 2159550293, "name": "Voisin Victor Hugo", "amenity": null, "bounds": "4.8295437, 45.7538338, 4.8295437, 45.7538338" }, "geometry": { "type": "Point", "coordinates": [ 4.829544, 45.753834 ] } },
{ "type": "Feature", "properties": { "uuid": 2950, "id": 2159556320, "name": "Marché de Carnot", "amenity": "marketplace", "bounds": "4.8280094, 45.7515374, 4.8280094, 45.7515374" }, "geometry": { "type": "Point", "coordinates": [ 4.828009, 45.751537 ] } },
{ "type": "Feature", "properties": { "uuid": 2951, "id": 2159556321, "name": "Les Fournils de France", "amenity": null, "bounds": "4.8286798, 45.7524417, 4.8286798, 45.7524417" }, "geometry": { "type": "Point", "coordinates": [ 4.82868, 45.752442 ] } },
{ "type": "Feature", "properties": { "uuid": 2959, "id": 2164037078, "name": "Place Carnot", "amenity": "taxi", "bounds": "4.8280916, 45.7516563, 4.8280916, 45.7516563" }, "geometry": { "type": "Point", "coordinates": [ 4.828092, 45.751656 ] } },
{ "type": "Feature", "properties": { "uuid": 3016, "id": 2185115903, "name": "École primaire Alix", "amenity": "school", "bounds": "4.8230425, 45.743805, 4.8230425, 45.743805" }, "geometry": { "type": "Point", "coordinates": [ 4.823042, 45.743805 ] } },
{ "type": "Feature", "properties": { "uuid": 3192, "id": 2222394679, "name": "Café Léone", "amenity": "cafe", "bounds": "4.8323102, 45.7617005, 4.8323102, 45.7617005" }, "geometry": { "type": "Point", "coordinates": [ 4.83231, 45.761701 ] } },
{ "type": "Feature", "properties": { "uuid": 3198, "id": 2232171098, "name": "Richart Lyon 2e", "amenity": null, "bounds": "4.830029, 45.7589351, 4.830029, 45.7589351" }, "geometry": { "type": "Point", "coordinates": [ 4.830029, 45.758935 ] } },
{ "type": "Feature", "properties": { "uuid": 3299, "id": 2287638751, "name": "Parc des Célestins", "amenity": "parking_entrance", "bounds": "4.8315601, 45.7601245, 4.8315601, 45.7601245" }, "geometry": { "type": "Point", "coordinates": [ 4.83156, 45.760125 ] } },
{ "type": "Feature", "properties": { "uuid": 3300, "id": 2287638754, "name": "Parc des Célestins", "amenity": "parking_entrance", "bounds": "4.8312776, 45.7597834, 4.8312776, 45.7597834" }, "geometry": { "type": "Point", "coordinates": [ 4.831278, 45.759783 ] } },
{ "type": "Feature", "properties": { "uuid": 3346, "id": 2316189143, "name": null, "amenity": "bicycle_parking", "bounds": "4.8357183, 45.7600361, 4.8357183, 45.7600361" }, "geometry": { "type": "Point", "coordinates": [ 4.835718, 45.760036 ] } },
{ "type": "Feature", "properties": { "uuid": 3347, "id": 2316189147, "name": null, "amenity": "bicycle_parking", "bounds": "4.8333785, 45.76214, 4.8333785, 45.76214" }, "geometry": { "type": "Point", "coordinates": [ 4.833379, 45.76214 ] } },
{ "type": "Feature", "properties": { "uuid": 3348, "id": 2316189152, "name": null, "amenity": "bicycle_parking", "bounds": "4.8355211, 45.7630025, 4.8355211, 45.7630025" }, "geometry": { "type": "Point", "coordinates": [ 4.835521, 45.763002 ] } },
{ "type": "Feature", "properties": { "uuid": 3349, "id": 2316189158, "name": null, "amenity": "bicycle_parking", "bounds": "4.83727, 45.7634563, 4.83727, 45.7634563" }, "geometry": { "type": "Point", "coordinates": [ 4.83727, 45.763456 ] } },
{ "type": "Feature", "properties": { "uuid": 3351, "id": 2318211027, "name": null, "amenity": "bicycle_parking", "bounds": "4.83144, 45.76093, 4.83144, 45.76093" }, "geometry": { "type": "Point", "coordinates": [ 4.83144, 45.76093 ] } },
{ "type": "Feature", "properties": { "uuid": 3384, "id": 2326778987, "name": "Gendarmerie nationale", "amenity": "police", "bounds": "4.819742, 45.7471124, 4.819742, 45.7471124" }, "geometry": { "type": "Point", "coordinates": [ 4.819742, 45.747112 ] } },
{ "type": "Feature", "properties": { "uuid": 3389, "id": 2336249970, "name": "Centre d'échange (domaine SNCF)", "amenity": "taxi", "bounds": "4.8262762, 45.7488905, 4.8262762, 45.7488905" }, "geometry": { "type": "Point", "coordinates": [ 4.826276, 45.748891 ] } },
{ "type": "Feature", "properties": { "uuid": 3390, "id": 2337326278, "name": "Le Chiquito", "amenity": null, "bounds": "4.8303132, 45.7530868, 4.8303132, 45.7530868" }, "geometry": { "type": "Point", "coordinates": [ 4.830313, 45.753087 ] } },
{ "type": "Feature", "properties": { "uuid": 3440, "id": 2391343104, "name": "Confluence Darse", "amenity": "bicycle_rental", "bounds": "4.8158586, 45.7434193, 4.8158586, 45.7434193" }, "geometry": { "type": "Point", "coordinates": [ 4.815859, 45.743419 ] } },
{ "type": "Feature", "properties": { "uuid": 3441, "id": 2391343105, "name": null, "amenity": "bicycle_parking", "bounds": "4.8302551, 45.7545681, 4.8302551, 45.7545681" }, "geometry": { "type": "Point", "coordinates": [ 4.830255, 45.754568 ] } },
{ "type": "Feature", "properties": { "uuid": 3448, "id": 2399182785, "name": null, "amenity": "drinking_water", "bounds": "4.8244858, 45.7452249, 4.8244858, 45.7452249" }, "geometry": { "type": "Point", "coordinates": [ 4.824486, 45.745225 ] } },
{ "type": "Feature", "properties": { "uuid": 3449, "id": 2399182790, "name": null, "amenity": "drinking_water", "bounds": "4.8275186, 45.7517355, 4.8275186, 45.7517355" }, "geometry": { "type": "Point", "coordinates": [ 4.827519, 45.751736 ] } },
{ "type": "Feature", "properties": { "uuid": 3477, "id": 2430986598, "name": null, "amenity": "motorcycle_parking", "bounds": "4.8178471, 45.7426823, 4.8178471, 45.7426823" }, "geometry": { "type": "Point", "coordinates": [ 4.817847, 45.742682 ] } },
{ "type": "Feature", "properties": { "uuid": 3478, "id": 2430986599, "name": null, "amenity": "bicycle_parking", "bounds": "4.8179986, 45.7427067, 4.8179986, 45.7427067" }, "geometry": { "type": "Point", "coordinates": [ 4.817999, 45.742707 ] } },
{ "type": "Feature", "properties": { "uuid": 3479, "id": 2430986601, "name": null, "amenity": "bicycle_parking", "bounds": "4.819258, 45.7446683, 4.819258, 45.7446683" }, "geometry": { "type": "Point", "coordinates": [ 4.819258, 45.744668 ] } },
{ "type": "Feature", "properties": { "uuid": 3504, "id": 2446237134, "name": "L'arbre à thé", "amenity": "restaurant", "bounds": "4.8322301, 45.7619546, 4.8322301, 45.7619546" }, "geometry": { "type": "Point", "coordinates": [ 4.83223, 45.761955 ] } },
{ "type": "Feature", "properties": { "uuid": 3623, "id": 2466428370, "name": null, "amenity": "drinking_water", "bounds": "4.8151571, 45.7428871, 4.8151571, 45.7428871" }, "geometry": { "type": "Point", "coordinates": [ 4.815157, 45.742887 ] } },
{ "type": "Feature", "properties": { "uuid": 3624, "id": 2466428371, "name": null, "amenity": "drinking_water", "bounds": "4.8226323, 45.7429347, 4.8226323, 45.7429347" }, "geometry": { "type": "Point", "coordinates": [ 4.822632, 45.742935 ] } },
{ "type": "Feature", "properties": { "uuid": 3626, "id": 2466428375, "name": null, "amenity": "drinking_water", "bounds": "4.825503, 45.7474515, 4.825503, 45.7474515" }, "geometry": { "type": "Point", "coordinates": [ 4.825503, 45.747451 ] } },
{ "type": "Feature", "properties": { "uuid": 3628, "id": 2466428377, "name": null, "amenity": "drinking_water", "bounds": "4.8270822, 45.7539514, 4.8270822, 45.7539514" }, "geometry": { "type": "Point", "coordinates": [ 4.827082, 45.753951 ] } },
{ "type": "Feature", "properties": { "uuid": 3695, "id": 2472390879, "name": "L'Espace Brasserie", "amenity": "restaurant", "bounds": "4.8309549, 45.7568082, 4.8309549, 45.7568082" }, "geometry": { "type": "Point", "coordinates": [ 4.830955, 45.756808 ] } },
{ "type": "Feature", "properties": { "uuid": 3697, "id": 2475053652, "name": "Pharmacie Victor Hugo", "amenity": "pharmacy", "bounds": "4.8307224, 45.7557398, 4.8307224, 45.7557398" }, "geometry": { "type": "Point", "coordinates": [ 4.830722, 45.75574 ] } },
{ "type": "Feature", "properties": { "uuid": 3710, "id": 2475478055, "name": null, "amenity": "bicycle_parking", "bounds": "4.8348115, 45.7562492, 4.8348115, 45.7562492" }, "geometry": { "type": "Point", "coordinates": [ 4.834811, 45.756249 ] } },
{ "type": "Feature", "properties": { "uuid": 3725, "id": 2476288482, "name": "BNP Paribas", "amenity": "bank", "bounds": "4.8347228, 45.7579656, 4.8347228, 45.7579656" }, "geometry": { "type": "Point", "coordinates": [ 4.834723, 45.757966 ] } },
{ "type": "Feature", "properties": { "uuid": 3727, "id": 2476288484, "name": "Le Petit Casino de l'Ancienne Préfecture", "amenity": null, "bounds": "4.8325528, 45.7609545, 4.8325528, 45.7609545" }, "geometry": { "type": "Point", "coordinates": [ 4.832553, 45.760954 ] } },
{ "type": "Feature", "properties": { "uuid": 3729, "id": 2476288486, "name": "Coreen Barbecue", "amenity": "restaurant", "bounds": "4.834505, 45.759819, 4.834505, 45.759819" }, "geometry": { "type": "Point", "coordinates": [ 4.834505, 45.759819 ] } },
{ "type": "Feature", "properties": { "uuid": 3730, "id": 2476288487, "name": "Devred", "amenity": null, "bounds": "4.8359742, 45.7603466, 4.8359742, 45.7603466" }, "geometry": { "type": "Point", "coordinates": [ 4.835974, 45.760347 ] } },
{ "type": "Feature", "properties": { "uuid": 3732, "id": 2476288490, "name": "Orange", "amenity": null, "bounds": "4.8350849, 45.7596516, 4.8350849, 45.7596516" }, "geometry": { "type": "Point", "coordinates": [ 4.835085, 45.759652 ] } },
{ "type": "Feature", "properties": { "uuid": 3734, "id": 2476288492, "name": "Pharmacie Hôtel Dieu", "amenity": "pharmacy", "bounds": "4.8359074, 45.7600922, 4.8359074, 45.7600922" }, "geometry": { "type": "Point", "coordinates": [ 4.835907, 45.760092 ] } },
{ "type": "Feature", "properties": { "uuid": 3736, "id": 2476288497, "name": null, "amenity": "atm", "bounds": "4.8313855, 45.7567267, 4.8313855, 45.7567267" }, "geometry": { "type": "Point", "coordinates": [ 4.831385, 45.756727 ] } },
{ "type": "Feature", "properties": { "uuid": 3737, "id": 2476288499, "name": null, "amenity": "atm", "bounds": "4.8313674, 45.7567451, 4.8313674, 45.7567451" }, "geometry": { "type": "Point", "coordinates": [ 4.831367, 45.756745 ] } },
{ "type": "Feature", "properties": { "uuid": 3738, "id": 2476288502, "name": null, "amenity": "atm", "bounds": "4.8349234, 45.7578414, 4.8349234, 45.7578414" }, "geometry": { "type": "Point", "coordinates": [ 4.834923, 45.757841 ] } },
{ "type": "Feature", "properties": { "uuid": 3739, "id": 2476288503, "name": null, "amenity": "bicycle_parking", "bounds": "4.8338502, 45.7579182, 4.8338502, 45.7579182" }, "geometry": { "type": "Point", "coordinates": [ 4.83385, 45.757918 ] } },
{ "type": "Feature", "properties": { "uuid": 3740, "id": 2476288504, "name": null, "amenity": "atm", "bounds": "4.8346874, 45.7579315, 4.8346874, 45.7579315" }, "geometry": { "type": "Point", "coordinates": [ 4.834687, 45.757931 ] } },
{ "type": "Feature", "properties": { "uuid": 3741, "id": 2476288508, "name": null, "amenity": "recycling", "bounds": "4.8305432, 45.7583465, 4.8305432, 45.7583465" }, "geometry": { "type": "Point", "coordinates": [ 4.830543, 45.758347 ] } },
{ "type": "Feature", "properties": { "uuid": 3743, "id": 2476288517, "name": null, "amenity": "post_box", "bounds": "4.8330336, 45.7603393, 4.8330336, 45.7603393" }, "geometry": { "type": "Point", "coordinates": [ 4.833034, 45.760339 ] } },
{ "type": "Feature", "properties": { "uuid": 3744, "id": 2476288519, "name": "Place des Jacobins", "amenity": "taxi", "bounds": "4.8336351, 45.7607933, 4.8336351, 45.7607933" }, "geometry": { "type": "Point", "coordinates": [ 4.833635, 45.760793 ] } },
{ "type": "Feature", "properties": { "uuid": 3745, "id": 2476288520, "name": "Place de la République", "amenity": "taxi", "bounds": "4.8361982, 45.7611937, 4.8361982, 45.7611937" },